index,state,year,name,type,city,county,enroll,mmr,xmed,xper,lat,lng
1,Arizona,2018-19,A J Mitchell Elementary,Public,Nogales,Santa Cruz,51,100,0,0,31.3478189,-110.9380314
2,Arizona,2018-19,Academy Del Sol,Charter,Tucson,Pima,22,100,0,0,32.2219215,-110.8961031
3,Arizona,2018-19,Academy Del Sol - Hope,Charter,Tucson,Pima,85,100,0,0,32.1304932,-111.1170048
4,Arizona,2018-19,Academy Of Mathematics And Science South,Charter,Phoenix,Maricopa,60,100,0,0,33.4854475,-112.130633
5,Arizona,2018-19,Acclaim Academy,Charter,Phoenix,Maricopa,43,100,2.33,2.33,33.49562,-112.224722
6,Arizona,2018-19,Alfred F Garcia,Public,Phoenix,Maricopa,36,100,0,0,33.4353194,-112.1168284
7,Arizona,2018-19,All Aboard Charter,Charter,Phoenix,Maricopa,24,100,0,4.17,33.523322,-112.1337533
8,Arizona,2018-19,Amerischools Academy - Yuma South Campus,Charter,Yuma,Yuma,22,100,0,0,32.690013,-114.623427
9,Arizona,2018-19,Arizona Cultural Academy,Private,Phoenix,Maricopa,26,100,0,0,33.3756163,-111.9929104
10,Arizona,2018-19,Arizona Desert Elementary,Public,San Luis,Yuma,78,100,0,0,32.5006114,-114.7810041
11,Arizona,2018-19,Arthur M Hamilton,Public,Phoenix,Maricopa,35,100,2.86,0,33.430508,-112.103145
12,Arizona,2018-19,Bella Vista Elementary,Public,Sierra Vista,Cochise,54,100,0,0,31.5633897,-110.2810555
13,Arizona,2018-19,Blenman Elementary,Public,Tucson,Pima,54,100,7.41,0,32.2429283,-110.9275187
14,Arizona,2018-19,Booth Magnet Elementary,Public,Tucson,Pima,34,100,0,0,32.2145843,-110.8375036
15,Arizona,2018-19,Butterfield Elementary,Public,Tucson,Pima,57,100,0,0,32.3459724,-111.0390519
16,Arizona,2018-19,Carrillo Intermediate Magnet,Public,Tucson,Pima,47,100,2.13,0,32.2152945,-110.9747402
17,Arizona,2018-19,Casa Blanca Community,Public,Bapchule,Pinal,54,100,0,0,33.1175337,-111.8860664
18,Arizona,2018-19,Cesar Chavez Elementary,Public,San Luis,Yuma,98,100,0,0,32.4983248,-114.7530985
19,Arizona,2018-19,Challenger Elementary,Public,Nogales,Santa Cruz,67,100,0,0,31.3721614,-110.9145932
20,Arizona,2018-19,Chinle Elementary,Public,Chinle,Apache,58,100,0,0,36.15146,-109.586306
21,Arizona,2018-19,Copper Creek Elementary,Public,Tucson,Pima,55,100,0,0,32.418096,-110.98633
22,Arizona,2018-19,Copper Rim Elementary,Public,Globe,Gila,134,100,0,4.48,33.4030162,-110.7717021
23,Arizona,2018-19,Countryside Elementary,Public,Surprise,Maricopa,47,100,0,0,33.621558,-112.387591
24,Arizona,2018-19,Cradleboard,Public,Whiteriver,Navajo,59,100,0,0,33.9200051,-109.9483287
25,Arizona,2018-19,Davidson Elementary,Public,Tucson,Pima,34,100,0,0,32.269635,-110.908085
26,Arizona,2018-19,Desert Oasis Elementary School-85037,Public,Phoenix,Maricopa,63,100,0,0,33.4656544,-112.2495601
27,Arizona,2018-19,Desert View Elementary,Public,San Luis,Yuma,92,100,0,0,32.5051971,-114.7529429
28,Arizona,2018-19,Dishchii'Bikoh Community,Private,Cibecue,Navajo,41,100,0,0,34.0318331,-110.4945143
29,Arizona,2018-19,Drachman Primary Magnet,Public,Tucson,Pima,59,100,0,0,32.2084073,-110.9734971
30,Arizona,2018-19,Dunham Elementary,Public,Tucson,Pima,50,100,0,0,32.1987229,-110.7824377
31,Arizona,2018-19,E C Nash,Public,Tucson,Pima,48,100,0,2.08,32.2554637,-110.9807647
32,Arizona,2018-19,Eagle College Prep - Maryvale,Charter,Phoenix,Maricopa,49,100,0,0,33.493283,-112.1740326
33,Arizona,2018-19,Eagle College Prep - Mesa,Charter,Mesa,Maricopa,30,100,0,3.33,33.4140722,-111.7960101
34,Arizona,2018-19,Ed Pastor Elementary 4,Public,San Luis,Yuma,75,100,0,0,32.4954616,-114.7682155
35,Arizona,2018-19,El Mirage Elementary,Public,El Mirage,Maricopa,73,100,0,0,33.60643,-112.325771
36,Arizona,2018-19,Estrella Vista Elementary,Public,Avondale,Maricopa,97,100,0,1.03,33.4311096,-112.3139542
37,Arizona,2018-19,Freedom Elementary,Public,Buckeye,Maricopa,58,100,0,0,33.4319678,-112.5273171
38,Arizona,2018-19,Friendly House Academia Del Pueblo Elementary,Charter,Phoenix,Maricopa,41,100,0,0,33.4289836,-112.0704041
39,Arizona,2018-19,Gadsden Elementary,Public,Gadsden,Yuma,61,100,0,0,32.5549397,-114.7831648
40,Arizona,2018-19,Gallego Basic Elementary,Public,Tucson,Pima,124,100,0,0,32.1398056,-110.9137109
41,Arizona,2018-19,Galveston Elementary,Public,Chandler,Maricopa,53,100,0,0,33.3126699,-111.8307567
42,Arizona,2018-19,Garden Lakes Elementary,Public,Avondale,Maricopa,81,100,0,0,33.487193,-112.291984
43,Arizona,2018-19,Glendale Landmark Middle,Public,Glendale,Maricopa,62,100,0,0,33.5424919,-112.1829811
44,Arizona,2018-19,Granada Primary,Public,Phoenix,Maricopa,200,100,0,0,33.5030924,-112.1276553
45,Arizona,2018-19,H L Suverkrup Elementary,Public,Yuma,Yuma,71,100,0,0,32.6989021,-114.6681888
46,Arizona,2018-19,Harvest Preparatory Academy,Charter,Yuma,Yuma,73,100,0,0,32.6951098,-114.6175105
47,Arizona,2018-19,Harvest Preparatory Academy,Charter,San Luis,Yuma,76,100,0,0,32.495807,-114.7528113
48,Arizona,2018-19,Holiday Park Elementary,Public,Phoenix,Maricopa,74,100,0,0,33.5005389,-112.2015635
49,Arizona,2018-19,Holladay Intermediate Magnet,Public,Tucson,Pima,38,100,0,0,32.195264,-110.9542231
50,Arizona,2018-19,Hollinger Elementary,Public,Tucson,Pima,44,100,0,0,32.1781162,-110.9702214
51,Arizona,2018-19,Howell Peter Elementary,Public,Tucson,Pima,48,100,2.08,0,32.2272299,-110.9055882
52,Arizona,2018-19,Huachuca Mountain Elementary,Public,Sierra Vista,Cochise,78,100,0,0,31.5096782,-110.2672116
53,Arizona,2018-19,Hunters Point Boarding,Private,St. Michaels,Apache,26,100,0,0,35.6457536,-109.0967274
54,Arizona,2018-19,Indian Oasis Primary,Public,Sells,Pima,91,100,0,0,31.916385,-111.8608734
55,Arizona,2018-19,Irene Erickson Elementary,Public,Tucson,Pima,79,100,1.27,0,32.1843822,-110.848132
56,Arizona,2018-19,Irene Lopez,Public,Phoenix,Maricopa,43,100,0,0,33.4039078,-112.0568123
57,Arizona,2018-19,Isaac E Imes,Public,Glendale,Maricopa,61,100,0,0,33.5341422,-112.1789395
58,Arizona,2018-19,J B Sutton Elementary,Public,Phoenix,Maricopa,108,100,0.93,0,33.4590034,-112.1252769
59,Arizona,2018-19,J Robert Hendricks Elementary,Public,Tucson,Pima,73,100,0,0,32.3243833,-111.03814
60,Arizona,2018-19,Jack L Kuban Elementary,Public,Phoenix,Maricopa,38,100,2.63,0,33.438936,-112.12818
61,Arizona,2018-19,Jeehdeez'A Academy (Low Mountain),Public,Low Mountain,Navajo,22,100,0,0,35.94028,-110.11278
62,Arizona,2018-19,Jefferson Elementary,Public,Mesa,Maricopa,56,100,0,0,33.412491,-111.679386
63,Arizona,2018-19,John E White Elementary,Public,Tucson,Pima,116,100,0,0,32.1516535,-111.0169697
64,Arizona,2018-19,Joseph Zito Elementary,Public,Phoenix,Maricopa,84,100,0,0,33.4725791,-112.1573211
65,Arizona,2018-19,Kenilworth Elementary,Public,Phoenix,Maricopa,58,100,0,0,33.4622141,-112.0805607
66,Arizona,2018-19,Kyrene De Las Brisas,Public,Chandler,Maricopa,94,100,0,0,33.3156917,-111.918836
67,Arizona,2018-19,La Paloma Academy - Lakeside,Charter,Tucson,Pima,105,100,0,0,32.1913846,-110.8188546
68,Arizona,2018-19,Laura N. Banks Elementary,Public,Tucson,Pima,40,100,0,0,32.1851247,-111.1409568
69,Arizona,2018-19,Legacy Traditional School - Northwest Tucson,Charter,Tucson,Pima,125,100,0,8.8,32.3603786,-111.0419077
70,Arizona,2018-19,Leupp Public,Public,Leupp,Coconino,22,100,0,0,35.2950103,-111.0090306
71,Arizona,2018-19,Lincoln Elementary,Public,Nogales,Santa Cruz,64,100,0,0,31.3440872,-110.9282253
72,Arizona,2018-19,Lineweaver Elementary,Public,Tucson,Pima,84,100,0,0,32.2144518,-110.9023251
73,Arizona,2018-19,Little Red Schoolhouse,Public,Nogales,Santa Cruz,21,100,0,0,31.3878269,-110.8719504
74,Arizona,2018-19,Longfellow Elementary,Public,Mesa,Maricopa,65,100,0,0,33.4086394,-111.7925107
75,Arizona,2018-19,Loretto Catholic,Private,Douglas,Cochise,21,100,9.52,0,31.3486835,-109.5431358
76,Arizona,2018-19,Los Ninos Elementary,Public,Tucson,Pima,60,100,0,0,32.1527553,-110.9082858
77,Arizona,2018-19,Lowell Elementary,Public,Mesa,Maricopa,66,100,1.52,0,33.4094124,-111.811552
78,Arizona,2018-19,Lynn Urquides Elementary,Public,Tucson,Pima,79,100,0,0,32.1764739,-110.9971263
79,Arizona,2018-19,Many Farms Community,Public,Many Farms,Apache,31,100,0,0,36.3658691,-109.6276344
80,Arizona,2018-19,Many Farms Public,Public,Chinle,Apache,57,100,0,0,36.3481408,-109.6175962
81,Arizona,2018-19,Mary C O'Brien Elementary,Public,Casa Grande,Pinal,22,100,0,0,32.893273,-111.567143
82,Arizona,2018-19,Mary Mcleod Bethune,Public,Phoenix,Maricopa,40,100,0,0,33.4343868,-112.0923315
83,Arizona,2018-19,Mccartney Ranch Elementary,Public,Casa Grande,Pinal,112,100,0,0,32.9320628,-111.7461284
84,Arizona,2018-19,Miles-Exploratory Learning Center,Public,Tucson,Pima,28,100,0,3.57,32.2210007,-110.9502224
85,Arizona,2018-19,Miller Elementary,Public,Tucson,Pima,89,100,0,0,32.1255401,-111.0369215
86,Arizona,2018-19,Mission View Elementary,Public,Tucson,Pima,27,100,0,0,32.1917909,-110.9718063
87,Arizona,2018-19,Mitchell Elementary,Public,Phoenix,Maricopa,58,100,0,0,33.4682238,-112.148618
88,Arizona,2018-19,Morgan Maxwell,Public,Tucson,Pima,27,100,0,0,32.2256276,-111.0276241
89,Arizona,2018-19,Mountain View Elementary,Public,Rio Rico,Santa Cruz,44,100,4.55,2.27,31.5059051,-111.0147862
90,Arizona,2018-19,Mountain Vista,Private,Oracle,Pinal,45,100,0,0,32.616188,-110.8004136
91,Arizona,2018-19,Moya Elementary,Public,Phoenix,Maricopa,67,100,0,0,33.4539782,-112.1479617
92,Arizona,2018-19,Myers-Ganoung Elementary,Public,Tucson,Pima,66,100,3.03,0,32.2029542,-110.8849546
93,Arizona,2018-19,Naco Elementary,Public,Naco,Cochise,34,100,0,0,31.3365288,-109.946943
94,Arizona,2018-19,New Vistas Academy,Private,Chandler,Maricopa,45,100,0,0,33.3148216,-111.8433697
95,Arizona,2018-19,Noor Academy Of Arizona,Private,Tempe,Maricopa,25,100,0,4,33.4040155,-111.9556575
96,Arizona,2018-19,Ochoa Elementary,Public,Tucson,Pima,29,100,0,0,32.2034752,-110.9705462
97,Arizona,2018-19,Omega Alpha Academy,Charter,Douglas,Cochise,21,100,0,0,31.348606,-109.532312
98,Arizona,2018-19,Orange Grove Elementary,Public,Somerton,Yuma,63,100,0,0,32.5889659,-114.6589744
99,Arizona,2018-19,Our Lady Of Lourdes Academy,Private,Nogales,Santa Cruz,24,100,0,4.17,31.356488,-110.9186975
100,Arizona,2018-19,Pan-American Elementary Charter,Charter,Phoenix,Maricopa,76,100,0,0,33.4944924,-112.1238011
101,Arizona,2018-19,Pecan Grove Elementary,Public,Yuma,Yuma,37,100,0,0,32.716009,-114.646347
102,Arizona,2018-19,Picacho,Public,Picacho,Pinal,23,100,0,0,32.7180646,-111.4972702
103,Arizona,2018-19,Pinon Elementary,Public,Pinon,Navajo,45,100,0,0,36.1109697,-110.2156581
104,Arizona,2018-19,Porter Elementary,Public,Mesa,Maricopa,68,100,1.47,0,33.3907103,-111.7720699
105,Arizona,2018-19,Pueblo Elementary,Charter,Scottsdale,Maricopa,81,100,0,7.41,33.5304542,-111.9058768
106,Arizona,2018-19,Pueblo Gardens Elementary,Public,Tucson,Pima,34,100,0,0,32.1961649,-110.9382477
107,Arizona,2018-19,Pusch Ridge Christian Academy,Private,Tucson,Pima,24,100,0,4.17,32.37726,-110.962306
108,Arizona,2018-19,Raul Grijalva Elementary,Public,Tucson,Pima,85,100,0,0,32.1479373,-111.0046397
109,Arizona,2018-19,Richard B Wilson Jr,Public,Tucson,Pima,61,100,0,1.64,32.4184876,-111.0184702
110,Arizona,2018-19,Rio Colorado Elementary,Public,San Luis,Yuma,69,100,0,0,32.4973928,-114.782474
111,Arizona,2018-19,Rio Vista Elementary,Public,Tucson,Pima,63,100,0,0,32.283485,-110.951301
112,Arizona,2018-19,Rivera Elementary,Public,Tucson,Pima,70,100,0,0,32.1587402,-110.9488008
113,Arizona,2018-19,Robert Bracker Elementary,Public,Nogales,Santa Cruz,41,100,0,0,31.403728,-110.969505
114,Arizona,2018-19,Ronald Reagan Fundamental,Public,Yuma,Yuma,66,100,0,0,32.6994842,-114.6580403
115,Arizona,2018-19,Roskruge Bilingual K-8,Public,Tucson,Pima,37,100,0,0,32.228453,-110.963284
116,Arizona,2018-19,Sacaton Elementary,Public,Sacaton,Pinal,83,100,0,0,33.0817024,-111.7616271
117,Arizona,2018-19,Safford Elementary,Public,Tucson,Pima,26,100,0,0,32.2181546,-110.9664822
118,Arizona,2018-19,Saint Cyril Of Alexandria,Private,Tucson,Pima,41,100,0,0,32.2438222,-110.8918288
119,Arizona,2018-19,Saint Elizabeth Ann Seton,Private,Tucson,Pima,34,100,0,0,32.363515,-111.02812
120,Arizona,2018-19,Saint Joseph Catholic,Private,Tucson,Pima,22,100,0,0,32.2188815,-110.8745023
121,Arizona,2018-19,Saint Louis The King,Private,Glendale,Maricopa,24,100,0,0,33.5306781,-112.1530322
122,Arizona,2018-19,Saint Peter Indian Mission,Private,Bapchule,Pinal,22,100,0,0,33.1364836,-111.8744713
123,Arizona,2018-19,Saint Thomas Aquinas Grade,Private,Avondale,Maricopa,41,100,0,0,33.4808805,-112.3552301
124,Arizona,2018-19,Saint Timothy Catholic,Private,Mesa,Maricopa,22,100,0,4.55,33.369368,-111.860184
125,Arizona,2018-19,Saints Peter & Paul Catholic,Private,Tucson,Pima,34,100,0,2.94,32.2402733,-110.9426536
126,Arizona,2018-19,Saints Simon And Jude,Private,Phoenix,Maricopa,40,100,0,0,33.5307683,-112.1157096
127,Arizona,2018-19,Sam Hughes Elementary,Public,Tucson,Pima,57,100,0,0,32.2314536,-110.9375776
128,Arizona,2018-19,San Cayetano Elementary,Public,Rio Rico,Santa Cruz,92,100,0,0,31.5077363,-111.0160561
129,Arizona,2018-19,Sanders Elementary,Public,Sanders,Apache,42,100,0,0,35.199159,-109.3134864
130,Arizona,2018-19,Santa Clara Elementary,Public,Tucson,Pima,70,100,0,0,32.1261038,-110.9827772
131,Arizona,2018-19,Santa Cruz Catholic,Private,Tucson,Pima,24,100,0,0,32.2064955,-110.9694561
132,Arizona,2018-19,Solomon Elementary,Public,Solomon,Graham,22,100,0,0,32.8135625,-109.6324929
133,Arizona,2018-19,South Pointe Public Charter Elementary,Charter,Phoenix,Maricopa,47,100,0,0,33.392627,-112.03705
134,Arizona,2018-19,Southgate Academy,Charter,Tucson,Pima,59,100,0,0,32.135352,-110.983547
135,Arizona,2018-19,Southwest Elementary,Public,Phoenix,Maricopa,55,100,0,0,33.3621786,-112.0882504
136,Arizona,2018-19,Summit View Elementary,Public,Tucson,Pima,68,100,0,0,32.0662935,-110.9436911
137,Arizona,2018-19,Sunridge Elementary,Public,Phoenix,Maricopa,89,100,0,0,33.459526,-112.194442
138,Arizona,2018-19,Sunset Elementary,Public,Phoenix,Maricopa,111,100,0,0,33.488335,-112.2007718
139,Arizona,2018-19,T G Barr,Public,Phoenix,Maricopa,39,100,0,0,33.38546,-112.036532
140,Arizona,2018-19,Tolson Elementary,Public,Tucson,Pima,55,100,0,0,32.2102428,-111.0207988
141,Arizona,2018-19,Town & Country Elementary,Public,Sierra Vista,Cochise,50,100,0,0,31.5406736,-110.2828975
142,Arizona,2018-19,Tres Rios Elementary,Public,Tolleson,Maricopa,73,100,0,0,33.4008725,-112.2789593
143,Arizona,2018-19,Tsaile Elementary,Public,Tsaile,Apache,62,100,0,0,36.3017116,-109.2098368
144,Arizona,2018-19,Tuscano Elementary,Public,Phoenix,Maricopa,94,100,0,1.06,33.4146743,-112.2314464
145,Arizona,2018-19,Valley Horizon Elementary,Public,Yuma,Yuma,61,100,0,0,32.6899881,-114.6771097
146,Arizona,2018-19,Valley View,Public,Phoenix,Maricopa,57,100,0,0,33.371376,-112.084425
147,Arizona,2018-19,Van Buskirk Elementary,Public,Tucson,Pima,47,100,0,0,32.1712891,-110.9598526
148,Arizona,2018-19,W F Killip Elementary,Public,Flagstaff,Coconino,57,100,0,0,35.2116153,-111.6157943
149,Arizona,2018-19,Wheeler Elementary,Public,Tucson,Pima,58,100,1.72,0,32.1990624,-110.8498173
150,Arizona,2018-19,Whitman Elementary,Public,Mesa,Maricopa,106,100,0,0.94,33.4491008,-111.8336292
151,Arizona,2018-19,Academy Of Math And Science - Desert Sky,Charter,Phoenix,Maricopa,145,99.31,0,0,33.465158,-112.182679
152,Arizona,2018-19,Mountain View Elementary,Public,Phoenix,Maricopa,145,99.31,0,1.38,33.581589,-112.0839212
153,Arizona,2018-19,Litchfield Elementary,Public,Litchfield Park,Maricopa,137,99.27,0,2.92,33.4925498,-112.3568599
154,Arizona,2018-19,Wilson Elementary,Public,Phoenix,Maricopa,137,99.27,0,0.73,33.4542391,-112.0175564
155,Arizona,2018-19,Arizona Charter Academy,Charter,Surprise,Maricopa,124,99.19,0,0.81,33.6292513,-112.3418035
156,Arizona,2018-19,Westwind Primary,Public,Phoenix,Maricopa,123,99.19,0,0.81,33.5021158,-112.2526524
157,Arizona,2018-19,Palmcroft Elementary,Public,Yuma,Yuma,120,99.17,0,0.83,32.6739786,-114.6297181
158,Arizona,2018-19,Imagine Elementary At Avondale,Charter,Avondale,Maricopa,113,99.12,0,0.88,33.4429307,-112.3385351
159,Arizona,2018-19,Mabel Padgett Elementary,Public,Goodyear,Maricopa,108,99.07,0.93,2.78,33.4992996,-112.3904559
160,Arizona,2018-19,Ocotillo,Public,Phoenix,Maricopa,103,99.03,0,1.94,33.5339582,-112.1278761
161,Arizona,2018-19,West Elementary,Public,Coolidge,Pinal,98,98.98,0,1.02,32.9743378,-111.5293165
162,Arizona,2018-19,Sunburst Elementary,Public,Glendale,Maricopa,97,98.97,0,3.09,33.6150776,-112.161185
163,Arizona,2018-19,Borman Elementary,Public,Tucson,Pima,94,98.94,0,0,32.1887548,-110.8631808
164,Arizona,2018-19,Mary Belle Mccorkle,Public,Tucson,Pima,93,98.92,0,0,32.1703582,-111.0025747
165,Arizona,2018-19,Prince Elementary,Public,Tucson,Pima,93,98.92,0,1.08,32.2725481,-110.9706473
166,Arizona,2018-19,Michael Anderson,Public,Avondale,Maricopa,91,98.9,0,0,33.4337186,-112.351566
167,Arizona,2018-19,Copper View Elementary,Public,Sahuarita,Pima,89,98.88,0,1.12,31.9558632,-110.9770423
168,Arizona,2018-19,Frank Borman Middle,Public,Phoenix,Maricopa,86,98.84,1.16,1.16,33.4903127,-112.1771596
169,Arizona,2018-19,Lake Pleasant Elementary,Public,Peoria,Maricopa,86,98.84,0,1.16,33.7679677,-112.3456092
170,Arizona,2018-19,Cotton Boll,Public,Peoria,Maricopa,85,98.82,0,1.18,33.5599708,-112.2433501
171,Arizona,2018-19,Holmes Elementary,Public,Mesa,Maricopa,85,98.82,0,1.18,33.3975472,-111.8148451
172,Arizona,2018-19,Sun Canyon Elementary,Public,Phoenix,Maricopa,85,98.82,0,0,33.431363,-112.2351709
173,Arizona,2018-19,Weitzel's Puente De Hozho Bilinqual,Public,Flagstaff,Coconino,85,98.82,0,1.18,35.2197277,-111.6152325
174,Arizona,2018-19,Esperanza Elementary,Public,Tucson,Pima,84,98.81,1.19,1.19,32.1556358,-110.9360096
175,Arizona,2018-19,Esperanza Elementary School-85009,Public,Phoenix,Maricopa,83,98.8,0,1.2,33.4646649,-112.125341
176,Arizona,2018-19,John F Kennedy Elementary,Public,Phoenix,Maricopa,83,98.8,1.2,1.2,33.3841905,-112.0574449
177,Arizona,2018-19,Valle Del Encanto Learning Center,Public,Somerton,Yuma,83,98.8,0,1.2,32.5992555,-114.7175988
178,Arizona,2018-19,Desert Mirage Elementary,Public,Glendale,Maricopa,82,98.78,0,1.22,33.5278555,-112.2429849
179,Arizona,2018-19,Gary A Knox Elementary,Public,Yuma,Yuma,81,98.77,0,1.23,32.6745148,-114.646852
180,Arizona,2018-19,Excelencia,Public,Phoenix,Maricopa,80,98.75,0,1.25,33.4650314,-112.035342
181,Arizona,2018-19,Hartford Sylvia Encinas Elementary,Public,Chandler,Maricopa,80,98.75,0,2.5,33.3154255,-111.8509438
182,Arizona,2018-19,Gateway,Public,Phoenix,Maricopa,79,98.73,0,1.27,33.4618437,-112.0071162
183,Arizona,2018-19,Loma Linda Elementary,Public,Phoenix,Maricopa,79,98.73,0,0,33.4920649,-112.03726
184,Arizona,2018-19,P T Coe Elementary,Public,Phoenix,Maricopa,79,98.73,0,1.27,33.4780394,-112.1426056
185,Arizona,2018-19,Copper King Elementary,Public,Phoenix,Maricopa,78,98.72,0,1.28,33.5020914,-112.2918181
186,Arizona,2018-19,Drexel Elementary,Public,Tucson,Pima,77,98.7,0,1.3,32.1499961,-110.9596981
187,Arizona,2018-19,Sunset Vista Elementary,Public,Glendale,Maricopa,77,98.7,1.3,1.3,33.5441964,-112.2268092
188,Arizona,2018-19,Sheely Farms Elementary,Public,Phoenix,Maricopa,76,98.68,0,1.32,33.4737402,-112.2628848
189,Arizona,2018-19,Cordova Elementary,Public,Phoenix,Maricopa,75,98.67,0,1.33,33.519264,-112.133103
190,Arizona,2018-19,Willcox Elementary,Public,Willcox,Cochise,75,98.67,0,0,32.2567059,-109.8358842
191,Arizona,2018-19,Crown Charter,Charter,Litchfield Park,Maricopa,74,98.65,0,1.35,33.529962,-112.3277696
192,Arizona,2018-19,Riverview,Public,El Mirage,Maricopa,74,98.65,0,4.05,33.5990051,-112.3117033
193,Arizona,2018-19,Alta E Butler,Public,Phoenix,Maricopa,73,98.63,0,0,33.4583334,-112.1421923
194,Arizona,2018-19,Harold W Smith,Public,Glendale,Maricopa,73,98.63,0,0,33.5328593,-112.1953547
195,Arizona,2018-19,Laveen Elementary,Public,Laveen,Maricopa,73,98.63,0,1.37,33.3568174,-112.1497954
196,Arizona,2018-19,Madison Traditional Academy,Public,Phoenix,Maricopa,73,98.63,0,1.37,33.5303206,-112.0611953
197,Arizona,2018-19,Tucson Country Day,Charter,Tucson,Pima,73,98.63,1.37,0,32.2435572,-110.7954578
198,Arizona,2018-19,Tumbleweed Elementary,Public,Phoenix,Maricopa,73,98.63,0,1.37,33.594039,-112.1448084
199,Arizona,2018-19,Apache Elementary,Public,Peoria,Maricopa,71,98.59,0,1.41,33.6484491,-112.2446094
200,Arizona,2018-19,Western Peaks Elementary,Public,Surprise,Maricopa,71,98.59,0,2.82,33.629343,-112.448181
201,Arizona,2018-19,William T Machan Elementary,Public,Phoenix,Maricopa,70,98.57,0,0,33.4779931,-112.0353411
202,Arizona,2018-19,Pioneer Preparatory - A Challenge Foundation,Charter,Phoenix,Maricopa,69,98.55,0,1.45,33.4917797,-112.200226
203,Arizona,2018-19,Westpark Elementary,Public,Buckeye,Maricopa,69,98.55,0,1.45,33.4216275,-112.6056361
204,Arizona,2018-19,Boulder Creek Elementary,Public,Mesa,Maricopa,66,98.48,0,0,33.3602123,-111.660533
205,Arizona,2018-19,Copper Canyon Elementary,Public,Scottsdale,Maricopa,66,98.48,0,1.52,33.6467872,-111.9652906
206,Arizona,2018-19,George Washington Carver Elementary,Public,Yuma,Yuma,66,98.48,0,0,32.7171017,-114.6358912
207,Arizona,2018-19,Maurice C Cash,Public,Phoenix,Maricopa,66,98.48,0,0,33.4003565,-112.1413509
208,Arizona,2018-19,North Ranch Elementary,Public,Scottsdale,Maricopa,66,98.48,0,1.52,33.6359663,-111.9495004
209,Arizona,2018-19,Ironwood,Public,Casa Grande,Pinal,65,98.46,0,1.54,32.8916387,-111.7277431
210,Arizona,2018-19,Sundance Elementary School-85345,Public,Peoria,Maricopa,65,98.46,0,0,33.5882382,-112.2106081
211,Arizona,2018-19,Whittier Elementary School-85201,Public,Mesa,Maricopa,65,98.46,0,6.15,33.4288895,-111.8641126
212,Arizona,2018-19,Mohave Accelerated Elementary,Charter,Bullhead City,Mohave,64,98.44,0,1.56,35.1010798,-114.6256056
213,Arizona,2018-19,Salt River Elementary,Private,Scottsdale,Maricopa,64,98.44,0,1.56,33.5063918,-111.8313223
214,Arizona,2018-19,Alice Byrne Elementary,Public,Yuma,Yuma,62,98.39,0,1.61,32.6980706,-114.6297806
215,Arizona,2018-19,Canyon Breeze Elementary,Public,Avondale,Maricopa,62,98.39,0,1.61,33.4707944,-112.3116759
216,Arizona,2018-19,Las Brisas Academy,Public,Goodyear,Maricopa,62,98.39,0,1.61,33.4091552,-112.4508757
217,Arizona,2018-19,Rancho Gabriela Elementary,Public,Surprise,Maricopa,62,98.39,0,1.61,33.5878609,-112.387641
218,Arizona,2018-19,Saddleback Elementary,Public,Maricopa,Pinal,62,98.39,0,1.61,33.0472671,-112.0147555
219,Arizona,2018-19,Sunset Ridge Elementary-85305,Public,Glendale,Maricopa,62,98.39,0,3.23,33.5169431,-112.2428995
220,Arizona,2018-19,Centennial Elementary,Public,Tucson,Pima,61,98.36,1.64,1.64,32.2876904,-111.0138094
221,Arizona,2018-19,Lehi Elementary,Public,Mesa,Maricopa,61,98.36,1.64,1.64,33.4619949,-111.8040419
222,Arizona,2018-19,Sunland Elementary,Public,Phoenix,Maricopa,61,98.36,1.64,1.64,33.3967587,-112.0815436
223,Arizona,2018-19,Bicentennial South,Public,Glendale,Maricopa,121,98.35,0,1.65,33.5123547,-112.2148977
224,Arizona,2018-19,Rice,Public,San Carlos,Gila,121,98.35,0,0,33.3561679,-110.4528774
225,Arizona,2018-19,Discovery,Public,Glendale,Maricopa,60,98.33,0,1.67,33.528857,-112.22797
226,Arizona,2018-19,Gowan Science Academy,Public,Yuma,Yuma,60,98.33,0,1.67,32.699404,-114.6681558
227,Arizona,2018-19,Frances Owen Holaway Elementary,Public,Tucson,Pima,59,98.31,0,1.69,32.2707841,-110.9477078
228,Arizona,2018-19,Nevitt Elementary,Public,Phoenix,Maricopa,118,98.31,0,1.69,33.3873978,-111.9839621
229,Arizona,2018-19,Mendoza Elementary,Public,Mesa,Maricopa,58,98.28,0,5.17,33.44428,-111.7049932
230,Arizona,2018-19,John F Long,Public,Phoenix,Maricopa,115,98.26,0,1.74,33.501299,-112.176105
231,Arizona,2018-19,Barbara B Robey Elementary,Public,Litchfield Park,Maricopa,114,98.25,0,1.75,33.5131373,-112.3299567
232,Arizona,2018-19,Continental Elementary,Public,Green Valley,Pima,57,98.25,0,1.75,31.843959,-110.959117
233,Arizona,2018-19,Madison Elementary,Public,Mesa,Maricopa,57,98.25,0,1.75,33.4005276,-111.7132545
234,Arizona,2018-19,Sarah Marley,Public,Douglas,Cochise,57,98.25,0,0,31.3410435,-109.5502144
235,Arizona,2018-19,Taft Elementary,Public,Mesa,Maricopa,57,98.25,0,3.51,33.4268951,-111.6195502
236,Arizona,2018-19,Whiteriver Elementary,Public,Whiteriver,Navajo,57,98.25,0,0,33.8323629,-109.9706038
237,Arizona,2018-19,Agua Caliente,Public,Tucson,Pima,56,98.21,0,1.79,32.2808099,-110.7481927
238,Arizona,2018-19,Corte Sierra Elementary,Public,Avondale,Maricopa,112,98.21,0,1.79,33.4869238,-112.3340413
239,Arizona,2018-19,Desert View Academy,Charter,Yuma,Yuma,168,98.21,0,2.38,32.6978317,-114.6647455
240,Arizona,2018-19,Palo Verde,Public,Casa Grande,Pinal,56,98.21,0,1.79,32.8733652,-111.7415304
241,Arizona,2018-19,Anna Henry Elementary,Public,Tucson,Pima,55,98.18,0,1.82,32.228802,-110.7977467
242,Arizona,2018-19,Ocotillo Elementary,Public,Tucson,Pima,110,98.18,0,1.82,32.1481519,-110.9439843
243,Arizona,2018-19,Sunset Ridge Elementary-85086,Public,Phoenix,Maricopa,55,98.18,0,1.82,33.809221,-112.131486
244,Arizona,2018-19,Sahuaro,Public,Phoenix,Maricopa,54,98.15,0,3.7,33.6031826,-112.1291792
245,Arizona,2018-19,William R Sullivan Elementary,Public,Phoenix,Maricopa,54,98.15,0,1.85,33.448568,-112.127204
246,Arizona,2018-19,Starlight Park,Public,Phoenix,Maricopa,107,98.13,0,0,33.4878493,-112.2304226
247,Arizona,2018-19,Desert Mesa Elementary,Public,Yuma,Yuma,105,98.1,0,1.9,32.685654,-114.505979
248,Arizona,2018-19,Capitol Elementary,Public,Phoenix,Maricopa,52,98.08,0,1.92,33.4522301,-112.094852
249,Arizona,2018-19,Carmichael Elementary,Public,Sierra Vista,Cochise,52,98.08,3.85,1.92,31.562682,-110.2992417
250,Arizona,2018-19,Oro Grande Elementary,Public,Lake Havasu City,Mohave,52,98.08,0,1.92,34.4639215,-114.2713945
251,Arizona,2018-19,Orangewood Elementary,Public,Phoenix,Maricopa,103,98.06,0,2.91,33.5450034,-112.0967004
252,Arizona,2018-19,Adams Elementary,Public,Mesa,Maricopa,102,98.04,0.98,1.96,33.401518,-111.8667592
253,Arizona,2018-19,Bonillas Elementary Basic Curriculum Magn,Public,Tucson,Pima,51,98.04,5.88,1.96,32.2146846,-110.8908484
254,Arizona,2018-19,Centerra Mirage Elementary,Public,Goodyear,Maricopa,51,98.04,0,1.96,33.4425296,-112.3862367
255,Arizona,2018-19,Ira A Murphy,Public,Peoria,Maricopa,51,98.04,0,1.96,33.5796232,-112.2139215
256,Arizona,2018-19,Liberty Elementary School-85254,Public,Scottsdale,Maricopa,51,98.04,0,5.88,33.6199294,-111.9702712
257,Arizona,2018-19,Villa De Paz Elementary,Public,Phoenix,Maricopa,51,98.04,0,0,33.5071202,-112.2845532
258,Arizona,2018-19,Coronado K-8,Public,Tucson,Pima,50,98,0,2,32.4757016,-110.9205687
259,Arizona,2018-19,Indian Wells Elementary,Public,Indian Wells,Navajo,50,98,0,2,35.3997993,-110.0695172
260,Arizona,2018-19,W V Whitmore Elementary,Public,Tucson,Pima,50,98,0,2,32.2575286,-110.8790235
261,Arizona,2018-19,Anza Trail Elementary,Public,Sahuarita,Pima,98,97.96,0,2.04,31.9695391,-110.9748443
262,Arizona,2018-19,Curiel,Public,Eloy,Pinal,98,97.96,2.04,0,32.7597004,-111.5602002
263,Arizona,2018-19,Imagine Elementary At Cortez Park,Charter,Phoenix,Maricopa,98,97.96,0,1.02,33.5659276,-112.13485
264,Arizona,2018-19,Ironwood Elementary,Public,Tucson,Pima,98,97.96,0,1.02,32.3780012,-111.0368098
265,Arizona,2018-19,Palomino Primary,Public,Phoenix,Maricopa,146,97.95,0,1.37,33.6323321,-112.019
266,Arizona,2018-19,Charles W Harris Elementary,Public,Phoenix,Maricopa,97,97.94,0,0,33.4727283,-112.178446
267,Arizona,2018-19,G Frank Davidson,Public,Phoenix,Maricopa,97,97.94,0,0,33.486232,-112.210741
268,Arizona,2018-19,Tierra Del Sol Elementary,Public,Somerton,Yuma,97,97.94,0,0,32.5883512,-114.7087348
269,Arizona,2018-19,Flora Thew Elementary,Public,Tempe,Maricopa,96,97.92,0,3.13,33.4173339,-111.8952386
270,Arizona,2018-19,Las Brisas Elementary,Public,Glendale,Maricopa,96,97.92,0,4.17,33.7044048,-112.1851464
271,Arizona,2018-19,Sirrine Elementary,Public,Chandler,Maricopa,48,97.92,2.08,2.08,33.3431779,-111.8500582
272,Arizona,2018-19,William C Jack,Public,Glendale,Maricopa,142,97.89,0.7,2.11,33.5175109,-112.2009444
273,Arizona,2018-19,Country Place Elementary,Public,Tolleson,Maricopa,94,97.87,0,2.13,33.4175453,-112.2785842
274,Arizona,2018-19,Ford Elementary,Public,Tucson,Pima,47,97.87,0,2.13,32.1848347,-110.8214113
275,Arizona,2018-19,Harvest Preparatory Academy - Goodyear,Charter,Goodyear,Maricopa,47,97.87,0,2.13,33.4518816,-112.3797951
276,Arizona,2018-19,Knox Elementary,Public,Chandler,Maricopa,94,97.87,0,3.19,33.3250748,-111.8526262
277,Arizona,2018-19,Magnet Traditional,Public,Phoenix,Maricopa,47,97.87,0,0,33.4771586,-112.1088048
278,Arizona,2018-19,Marshall Elementary,Public,Tucson,Pima,47,97.87,0,2.13,32.1986201,-110.7991336
279,Arizona,2018-19,Mission Manor Elementary,Public,Tucson,Pima,92,97.83,0,0,32.1419155,-110.9786939
280,Arizona,2018-19,Tartesso Elementary,Public,Buckeye,Maricopa,92,97.83,0,2.17,33.4905364,-112.6882019
281,Arizona,2018-19,Dorothy Stinson,Public,Safford,Graham,91,97.8,0,0,32.8158497,-109.7148954
282,Arizona,2018-19,Lincoln Elementary,Public,Mesa,Maricopa,91,97.8,0,2.2,33.3978943,-111.8282139
283,Arizona,2018-19,Harold Steele Elementary,Public,Tucson,Pima,45,97.78,0,2.22,32.2126067,-110.8137939
284,Arizona,2018-19,Larkspur Elementary,Public,Phoenix,Maricopa,45,97.78,0,0,33.6015889,-112.0293794
285,Arizona,2018-19,Maie Bartlett Heard,Public,Phoenix,Maricopa,45,97.78,0,0,33.4804134,-112.1089294
286,Arizona,2018-19,Manzanita,Public,Tucson,Pima,90,97.78,0,3.33,32.3286533,-110.928306
287,Arizona,2018-19,Yuma Lutheran,Private,Yuma,Yuma,45,97.78,0,2.22,32.6810927,-114.5938654
288,Arizona,2018-19,Patterson Elementary,Public,Gilbert,Maricopa,89,97.75,0,3.37,33.3642533,-111.7637588
289,Arizona,2018-19,Saint John Vianney Catholic,Private,Goodyear,Maricopa,44,97.73,0,2.27,33.4436342,-112.3508418
290,Arizona,2018-19,Vista Del Sur Traditional,Public,Laveen,Maricopa,88,97.73,0,3.41,33.3709326,-112.144785
291,Arizona,2018-19,Blake Primary,Public,Parker,La Paz,130,97.69,0,2.31,34.1504288,-114.2958391
292,Arizona,2018-19,Chandler Traditional Academy - Independence,Public,Chandler,Maricopa,128,97.66,0,2.34,33.237698,-111.865958
293,Arizona,2018-19,Sycamore Elementary,Public,Vail,Pima,85,97.65,0,2.35,31.9535669,-110.7705812
294,Arizona,2018-19,Arroyo,Public,Glendale,Maricopa,42,97.62,0,2.38,33.5885163,-112.1578534
295,Arizona,2018-19,Hale Elementary,Public,Mesa,Maricopa,84,97.62,0,3.57,33.4424746,-111.7803523
296,Arizona,2018-19,Houston Elementary,Public,Gilbert,Maricopa,42,97.62,0,2.38,33.3721207,-111.7817152
297,Arizona,2018-19,Roosevelt Elementary,Public,Mesa,Maricopa,83,97.59,0,1.2,33.3995206,-111.8815299
298,Arizona,2018-19,Bonnie Brennan,Public,Winslow,Navajo,123,97.56,0.81,1.63,35.0396556,-110.7252839
299,Arizona,2018-19,Brunson-Lee Elementary,Public,Phoenix,Maricopa,82,97.56,0,2.44,33.4627593,-111.9796549
300,Arizona,2018-19,Thomas A Edison,Public,Phoenix,Maricopa,82,97.56,0,1.22,33.4577881,-112.0443981
301,Arizona,2018-19,Union Elementary,Public,Tolleson,Maricopa,122,97.54,0,1.64,33.4109,-112.256393
302,Arizona,2018-19,Frances Branden-Pickett Elementary,Public,Queen Creek,Maricopa,81,97.53,0,3.7,33.2331486,-111.609805
303,Arizona,2018-19,Walter Douglas Elementary,Public,Tucson,Pima,81,97.53,0,2.47,32.2672443,-110.9945714
304,Arizona,2018-19,James B Rolle,Public,Yuma,Yuma,121,97.52,0,2.48,32.6780464,-114.5937726
305,Arizona,2018-19,Sahuarita Primary,Public,Sahuarita,Pima,201,97.51,0,2.49,31.960925,-110.977688
306,Arizona,2018-19,Stanfield Elementary,Public,Stanfield,Pinal,40,97.5,0,2.5,32.875486,-111.9633527
307,Arizona,2018-19,C E Rose Elementary,Public,Tucson,Pima,79,97.47,1.27,1.27,32.1703878,-110.977551
308,Arizona,2018-19,Village Meadows Elementary,Public,Sierra Vista,Cochise,79,97.47,0,2.53,31.546145,-110.266621
309,Arizona,2018-19,Cottonwood Elementary,Public,Tucson,Pima,78,97.44,0,2.56,32.0941599,-110.7796697
310,Arizona,2018-19,Pedro Guerrero Elementary,Public,Mesa,Maricopa,78,97.44,0,2.56,33.4064599,-111.8548721
311,Arizona,2018-19,Campo Bello Elementary,Public,Phoenix,Maricopa,77,97.4,0,2.6,33.6466341,-112.0252342
312,Arizona,2018-19,Fowler Elementary,Public,Phoenix,Maricopa,77,97.4,1.3,0,33.4509631,-112.2059413
313,Arizona,2018-19,Meridian Elementary,Public,Mesa,Maricopa,77,97.4,1.3,3.9,33.343095,-111.5932202
314,Arizona,2018-19,Coyote Springs Elementary,Public,Prescott Valley,Yavapai,76,97.37,2.63,1.32,34.6373768,-112.3232209
315,Arizona,2018-19,Henry Hank Oyama,Public,Tucson,Pima,38,97.37,0,2.63,32.1909364,-111.0129748
316,Arizona,2018-19,Maxine O Bush Elementary,Public,Phoenix,Maricopa,38,97.37,0,2.63,33.365621,-112.068377
317,Arizona,2018-19,Roadrunner Elementary,Public,Phoenix,Maricopa,114,97.37,0,2.63,33.5503304,-112.1438598
318,Arizona,2018-19,Towne Meadows Elementary,Public,Higley,Maricopa,76,97.37,0,6.58,33.3708394,-111.704092
319,Arizona,2018-19,Chaparral Elementary School-85029,Public,Phoenix,Maricopa,75,97.33,0,4,33.6082906,-112.1402271
320,Arizona,2018-19,Coyote Trail Elementary,Public,Tucson,Pima,75,97.33,1.33,4,32.3536741,-111.1083082
321,Arizona,2018-19,Marshall Ranch Elementary,Public,Glendale,Maricopa,75,97.33,0,2.67,33.5994852,-112.1791622
322,Arizona,2018-19,Gale Elementary,Public,Tucson,Pima,74,97.3,0,2.7,32.2132303,-110.7989473
323,Arizona,2018-19,Heartland Ranch Elementary,Public,Coolidge,Pinal,37,97.3,0,2.7,32.982936,-111.5475989
324,Arizona,2018-19,Palm Lane Elementary,Public,Phoenix,Maricopa,111,97.3,0.9,0.9,33.4703944,-112.1975117
325,Arizona,2018-19,Saint Mary-Basha Catholic,Private,Chandler,Maricopa,37,97.3,0,2.7,33.3138809,-111.8472402
326,Arizona,2018-19,Self Development Academy Phoenix,Charter,Phoenix,Maricopa,37,97.3,0,5.41,33.4942297,-112.0500315
327,Arizona,2018-19,Math And Science Success Academy,Charter,Tucson,Pima,73,97.26,0,0,32.1325689,-110.9760575
328,Arizona,2018-19,Sousa Elementary,Public,Mesa,Maricopa,73,97.26,0,2.74,33.4279406,-111.589847
329,Arizona,2018-19,Spectrum Elementary,Public,Gilbert,Maricopa,73,97.26,0,2.74,33.2997003,-111.7613669
330,Arizona,2018-19,Papago,Public,Phoenix,Maricopa,109,97.25,0,0,33.4703526,-112.0031573
331,Arizona,2018-19,Garfield,Public,Phoenix,Maricopa,72,97.22,0,0,33.457728,-112.053216
332,Arizona,2018-19,Park Meadows Elementary,Public,Glendale,Maricopa,108,97.22,2.78,5.56,33.6663533,-112.1357613
333,Arizona,2018-19,Santa Rosa Elementary,Public,Maricopa,Pinal,36,97.22,0,2.78,33.0740964,-112.0286342
334,Arizona,2018-19,Stevenson Elementary,Public,Douglas,Cochise,72,97.22,0,0,31.3459013,-109.5263593
335,Arizona,2018-19,Tully Elementary Accelerated Magnet,Public,Tucson,Pima,36,97.22,0,2.78,32.2422559,-111.0011896
336,Arizona,2018-19,Glendale American,Public,Glendale,Maricopa,71,97.18,0,1.41,33.5612497,-112.1789859
337,Arizona,2018-19,Redbird Elementary,Public,Mesa,Maricopa,71,97.18,0,2.82,33.3963054,-111.8494527
338,Arizona,2018-19,Emerson Elementary,Public,Mesa,Maricopa,105,97.14,0,1.9,33.422958,-111.851995
339,Arizona,2018-19,First Avenue Elementary,Public,San Manuel,Pinal,35,97.14,0,2.86,32.5966312,-110.6382251
340,Arizona,2018-19,Fort Thomas Elementary,Public,Fort Thomas,Graham,35,97.14,0,0,33.0342863,-109.964444
341,Arizona,2018-19,James W. Rice Elementary,Public,Phoenix,Maricopa,105,97.14,0,1.9,33.5036557,-112.1594072
342,Arizona,2018-19,Maldonado Amelia Elementary,Public,Tucson,Pima,35,97.14,0,0,32.1165222,-111.0418027
343,Arizona,2018-19,Our Lady Of Perpetual Help School-85301,Private,Glendale,Maricopa,35,97.14,0,0,33.5460583,-112.1798257
344,Arizona,2018-19,Whittier Elementary School-85006,Public,Phoenix,Maricopa,35,97.14,0,2.86,33.4699153,-112.048243
345,Arizona,2018-19,Asu Preparatory Academy - Phoenix Elementary,Public,Phoenix,Maricopa,69,97.1,0,1.45,33.4533992,-112.0636589
346,Arizona,2018-19,Michael T. Hughes Elementary,Public,Mesa,Maricopa,69,97.1,0,1.45,33.427051,-111.7986358
347,Arizona,2018-19,Pima Butte Elementary,Public,Maricopa,Pinal,69,97.1,0,2.9,33.0863266,-112.0210424
348,Arizona,2018-19,Eva Marshall Elementary,Public,Flagstaff,Coconino,68,97.06,0,4.41,35.2070549,-111.6521919
349,Arizona,2018-19,Mesquite Elementary,Public,Yuma,Yuma,68,97.06,0,2.94,32.6758013,-114.6745577
350,Arizona,2018-19,Madrid Neighborhood,Public,Phoenix,Maricopa,67,97.01,0,0,33.4880981,-112.1395955
351,Arizona,2018-19,Melvin E Sine,Public,Glendale,Maricopa,67,97.01,1.49,1.49,33.5426253,-112.1647712
352,Arizona,2018-19,Quail Run Elementary,Public,Tucson,Pima,67,97.01,0,1.49,32.3602271,-111.0643539
353,Arizona,2018-19,Desert Willow Elementary,Public,Tucson,Pima,100,97,0,2,32.1033149,-110.7922965
354,Arizona,2018-19,Camelback Academy,Charter,Glendale,Maricopa,66,96.97,1.52,4.55,33.5093005,-112.2238514
355,Arizona,2018-19,Colonel Johnston Elementary,Public,Fort Huachuca,Cochise,99,96.97,0,0,31.5494677,-110.3439223
356,Arizona,2018-19,Davis Bilingual Magnet,Public,Tucson,Pima,66,96.97,0,3.03,32.228953,-110.9794904
357,Arizona,2018-19,Ironwood Elementary,Public,Phoenix,Maricopa,66,96.97,0,3.03,33.619788,-112.143144
358,Arizona,2018-19,Kyrene Del Norte,Public,Tempe,Maricopa,99,96.97,0,3.03,33.3577015,-111.9174095
359,Arizona,2018-19,Sunnyslope Elementary,Public,Phoenix,Maricopa,66,96.97,0,6.06,33.5740955,-112.0704123
360,Arizona,2018-19,Odyssey Preperatory Academy - Buckeye Apache,Charter,Buckeye,Maricopa,97,96.91,0,3.09,33.3874587,-112.5741905
361,Arizona,2018-19,Desert Garden Elementary,Public,Glendale,Maricopa,161,96.89,0,1.86,33.5351125,-112.2102535
362,Arizona,2018-19,Basis - Flagstaff,Charter,Flagstaff,Coconino,64,96.88,0,10.94,35.207697,-111.633999
363,Arizona,2018-19,Faras Elementary,Public,Pirtleville,Cochise,32,96.88,0,0,31.3608524,-109.569051
364,Arizona,2018-19,St. John Bosco Catholic School Program,Private,Phoenix,Maricopa,32,96.88,0,6.25,33.3011486,-111.9787047
365,Arizona,2018-19,Hohokam Elementary,Public,Scottsdale,Maricopa,63,96.83,0,1.59,33.472141,-111.898334
366,Arizona,2018-19,Whispering Wind Academy,Public,Phoenix,Maricopa,63,96.83,0,3.17,33.6314903,-111.9896886
367,Arizona,2018-19,Liberty Elementary,Public,Tucson,Pima,94,96.81,0,2.13,32.1526811,-110.9722303
368,Arizona,2018-19,Maricopa Elementary,Public,Maricopa,Pinal,125,96.8,1.6,4,33.044879,-112.054694
369,Arizona,2018-19,Washington Elementary School-85051,Public,Phoenix,Maricopa,125,96.8,0,3.2,33.5547951,-112.1158073
370,Arizona,2018-19,Helen Keeling Elementary,Public,Tucson,Pima,62,96.77,0,1.61,32.2587837,-110.964042
371,Arizona,2018-19,Pueblo Elementary,Public,Yuma,Yuma,62,96.77,0,3.23,32.6906338,-114.6555968
372,Arizona,2018-19,Academy Of Math And Science,Charter,Tucson,Pima,92,96.74,0,6.52,32.271788,-110.999361
373,Arizona,2018-19,Frye Elementary,Public,Chandler,Maricopa,92,96.74,0,5.43,33.2974596,-111.8313338
374,Arizona,2018-19,Santa Fe Elementary,Public,Peoria,Maricopa,92,96.74,1.09,3.26,33.5750415,-112.2251654
375,Arizona,2018-19,Craycroft Elementary,Public,Tucson,Pima,122,96.72,0,3.28,32.1355095,-110.8759677
376,Arizona,2018-19,Desert Meadows Elementary,Public,Laveen,Maricopa,61,96.72,0,3.28,33.372452,-112.205797
377,Arizona,2018-19,Kiva Elementary,Public,Scottsdale,Maricopa,61,96.72,0,8.2,33.5231142,-111.9323426
378,Arizona,2018-19,Kyrene De Los Cerritos,Public,Phoenix,Maricopa,61,96.72,0,1.64,33.3126795,-112.05746
379,Arizona,2018-19,Mary A Otondo Elementary,Public,Yuma,Yuma,121,96.69,0,3.31,32.6874111,-114.4898115
380,Arizona,2018-19,Bagdad Elementary,Public,Bagdad,Yavapai,30,96.67,3.33,6.67,34.575481,-113.1835395
381,Arizona,2018-19,Chandler Traditional Academy - Goodman Campus,Public,Chandler,Maricopa,120,96.67,0,5.83,33.326783,-111.886357
382,Arizona,2018-19,Cochise Elementary,Public,Scottsdale,Maricopa,90,96.67,0,5.56,33.5710075,-111.898057
383,Arizona,2018-19,Copper Creek Elementary,Public,Glendale,Maricopa,90,96.67,0,3.33,33.6845657,-112.2103562
384,Arizona,2018-19,First Baptist Christian Academy,Private,Sierra Vista,Cochise,30,96.67,3.33,0,31.5391956,-110.2926142
385,Arizona,2018-19,Mountain,Charter,Flagstaff,Coconino,30,96.67,0,3.33,35.1625628,-111.6691809
386,Arizona,2018-19,Paul Dunbar Lawrence,Public,Phoenix,Maricopa,30,96.67,0,20,33.4404691,-112.0843307
387,Arizona,2018-19,Saint Theresa Catholic,Private,Phoenix,Maricopa,30,96.67,3.33,0,33.4789733,-111.9727429
388,Arizona,2018-19,Vesey Elementary,Public,Tucson,Pima,90,96.67,0,2.22,32.159768,-111.074979
389,Arizona,2018-19,Yavapai Elementary,Public,Scottsdale,Maricopa,30,96.67,0,6.67,33.4553443,-111.9168505
390,Arizona,2018-19,Barcelona Elementary,Public,Glendale,Maricopa,119,96.64,1.68,4.2,33.533017,-112.154674
391,Arizona,2018-19,Hopi Elementary,Public,Phoenix,Maricopa,89,96.63,1.12,3.37,33.497069,-111.969804
392,Arizona,2018-19,Basis - Mesa,Charter,Mesa,Maricopa,59,96.61,0,8.47,33.324846,-111.616034
393,Arizona,2018-19,San Marcos Elementary,Public,Chandler,Maricopa,59,96.61,1.69,3.39,33.2978481,-111.8482882
394,Arizona,2018-19,Elvira Elementary,Public,Tucson,Pima,88,96.59,0,2.27,32.1271818,-110.9721469
395,Arizona,2018-19,Esperanza Elementary School-85027,Public,Phoenix,Maricopa,88,96.59,0,3.41,33.6737192,-112.076837
396,Arizona,2018-19,Great Hearts Academies - Archway Classical Academy Trivium West,Charter,Goodyear,Maricopa,88,96.59,0,3.41,33.469606,-112.3746228
397,Arizona,2018-19,Sunrise Elementary,Public,Yuma,Yuma,88,96.59,0,1.14,32.6768049,-114.4619339
398,Arizona,2018-19,Amberlea Elementary,Public,Phoenix,Maricopa,58,96.55,0,3.45,33.4752252,-112.2407325
399,Arizona,2018-19,Basis Chandler Primary South Campus,Charter,Chandler,Maricopa,87,96.55,0,4.6,33.2346196,-111.8427583
400,Arizona,2018-19,Harriet Johnson Primary,Public,Tucson,Pima,58,96.55,0,1.72,32.1415828,-111.0726875
401,Arizona,2018-19,Joe Carlson Elementary,Public,Douglas,Cochise,58,96.55,0,0,31.3521318,-109.5347236
402,Arizona,2018-19,Marjorie W Estes Elementary,Public,Marana,Pima,87,96.55,0,4.6,32.454034,-111.2071119
403,Arizona,2018-19,Sevilla Primary,Public,Phoenix,Maricopa,200,96.5,0,0.5,33.5148871,-112.1423226
404,Arizona,2018-19,Cheyenne Elementary,Public,Peoria,Maricopa,57,96.49,0,1.75,33.591769,-112.2475296
405,Arizona,2018-19,Laird Elementary,Public,Tempe,Maricopa,57,96.49,1.75,1.75,33.4467512,-111.9207543
406,Arizona,2018-19,Sierra Verde Elementary,Public,Glendale,Maricopa,85,96.47,1.18,3.53,33.6736106,-112.2158797
407,Arizona,2018-19,Peralta Elementary,Public,Phoenix,Maricopa,113,96.46,0,2.65,33.4727091,-112.2123926
408,Arizona,2018-19,Bloom Elementary,Public,Tucson,Pima,56,96.43,0,3.57,32.2424829,-110.8145099
409,Arizona,2018-19,Clawson,Public,Douglas,Cochise,56,96.43,0,1.79,31.3409306,-109.5431877
410,Arizona,2018-19,Fruchthendler Elementary,Public,Tucson,Pima,56,96.43,0,3.57,32.2683846,-110.8330332
411,Arizona,2018-19,Walker Butte K-8,Public,Queen Creek,Pinal,84,96.43,0,1.19,33.1483784,-111.5551918
412,Arizona,2018-19,Los Amigos Elementary,Public,Tucson,Pima,111,96.4,0.9,4.5,32.1480961,-110.9386528
413,Arizona,2018-19,Keller Elementary,Public,Mesa,Maricopa,83,96.39,0,4.82,33.3877094,-111.7991388
414,Arizona,2018-19,Manzo Elementary,Public,Tucson,Pima,55,96.36,0,3.64,32.2331062,-110.9924828
415,Arizona,2018-19,Winifred Harelson Elementary,Public,Tucson,Pima,55,96.36,3.64,3.64,32.3449847,-110.9837285
416,Arizona,2018-19,Metcalf Elementary,Public,Morenci,Greenlee,137,96.35,0,0,33.0449882,-109.3219528
417,Arizona,2018-19,Diamondback Elementary,Public,Bullhead City,Mohave,109,96.33,0,1.83,35.092354,-114.561254
418,Arizona,2018-19,Annie Kellond Elementary,Public,Tucson,Pima,81,96.3,0,3.7,32.2152238,-110.8503093
419,Arizona,2018-19,Carol Rae Ranch Elementary,Public,Gilbert,Maricopa,81,96.3,0,3.7,33.3718592,-111.7105939
420,Arizona,2018-19,Cesar E Chavez Community,Public,Phoenix,Maricopa,54,96.3,0,3.7,33.4109469,-112.0681899
421,Arizona,2018-19,Monte Vista Elementary,Public,Phoenix,Maricopa,81,96.3,0,3.7,33.4872057,-112.0052997
422,Arizona,2018-19,Red Mountain Ranch Elementary,Public,Mesa,Maricopa,54,96.3,0,5.56,33.4832398,-111.6854728
423,Arizona,2018-19,Southside Community,Charter,Tucson,Pima,27,96.3,0,3.7,32.1916996,-110.9429542
424,Arizona,2018-19,Thompson Ranch Elementary,Public,El Mirage,Maricopa,81,96.3,0,4.94,33.616927,-112.313519
425,Arizona,2018-19,Basis - Tucson Middle,Charter,Tucson,Pima,161,96.27,0.62,3.11,32.2348548,-110.9108552
426,Arizona,2018-19,Crismon Elementary,Public,Mesa,Maricopa,80,96.25,0,1.25,33.3710545,-111.853255
427,Arizona,2018-19,Desert Willow Elementary,Public,Cave Creek,Maricopa,80,96.25,0,12.5,33.7690063,-111.9876847
428,Arizona,2018-19,Littleton Elementary,Public,Cashion,Maricopa,80,96.25,0,0,33.4341529,-112.308525
429,Arizona,2018-19,Bellair Elementary,Public,Glendale,Maricopa,53,96.23,0,5.66,33.6467144,-112.1612782
430,Arizona,2018-19,San Tan Elementary,Public,Gilbert,Maricopa,132,96.21,0,4.55,33.2876509,-111.715564
431,Arizona,2018-19,Tanque Verde Elementary,Public,Tucson,Pima,79,96.2,0,6.33,32.255904,-110.7271073
432,Arizona,2018-19,Casa Academy,Charter,Phoenix,Maricopa,52,96.15,3.85,3.85,33.531656,-112.0917006
433,Arizona,2018-19,Innovation Academy K-5 Stem,Public,Oro Valley,Pima,78,96.15,0,5.13,32.443185,-110.9824849
434,Arizona,2018-19,Paseo Pointe,Public,Laveen,Maricopa,130,96.15,0,3.85,33.3675108,-112.1784782
435,Arizona,2018-19,Sonoran Science Academy - Tucson,Charter,Tucson,Pima,52,96.15,0,3.85,32.308186,-111.017594
436,Arizona,2018-19,Tomahawk Elementary,Public,Phoenix,Maricopa,104,96.15,0,0,33.4996619,-112.2276903
437,Arizona,2018-19,Alta Vista Elementary,Public,Phoenix,Maricopa,103,96.12,0,3.88,33.5648227,-112.1267223
438,Arizona,2018-19,Dos Rios Elementary,Public,Tolleson,Maricopa,77,96.1,0,2.6,33.4281217,-112.2476884
439,Arizona,2018-19,Solano,Public,Phoenix,Maricopa,77,96.1,3.9,3.9,33.5180339,-112.0919764
440,Arizona,2018-19,Arredondo Elementary,Public,Tempe,Maricopa,76,96.05,0,5.26,33.3840286,-111.9161985
441,Arizona,2018-19,Indian Bend Elementary,Public,Phoenix,Maricopa,76,96.05,0,3.95,33.612136,-112.003457
442,Arizona,2018-19,Bennett Academy - Venture Site,Charter,Phoenix,Maricopa,25,96,4,4,33.567192,-112.0924208
443,Arizona,2018-19,Dr Howard K Conley Elementary,Public,Chandler,Maricopa,100,96,0,4,33.2961083,-111.8689942
444,Arizona,2018-19,Irving Elementary,Public,Mesa,Maricopa,75,96,0,5.33,33.401289,-111.7607296
445,Arizona,2018-19,Kathryn Sue Simonton Elementary,Public,Queen Creek,Pinal,50,96,0,4,33.2450686,-111.5218638
446,Arizona,2018-19,Leman Academy Of Excellence - Sierra Vista,Charter,Sierra Vista,Cochise,75,96,0,4,31.5516385,-110.2879418
447,Arizona,2018-19,Madison Camelview Elementary,Public,Phoenix,Maricopa,125,96,4,4,33.50328,-112.0381356
448,Arizona,2018-19,Moon Mountain,Public,Phoenix,Maricopa,75,96,1.33,6.67,33.607767,-112.0984223
449,Arizona,2018-19,Phoenix Collegiate Academy Charter,Charter,Phoenix,Maricopa,50,96,0,4,33.3951548,-112.0736622
450,Arizona,2018-19,Soleng Tom Elementary,Public,Tucson,Pima,75,96,0,4,32.2126872,-110.767451
451,Arizona,2018-19,Academy Of Math And Science Camelback,Charter,Phoenix,Maricopa,173,95.95,0,2.31,33.508519,-112.202393
452,Arizona,2018-19,Abraham Lincoln Traditional,Public,Phoenix,Maricopa,74,95.95,0,5.41,33.580714,-112.143465
453,Arizona,2018-19,Asu Preparatory Academy - Polytechnic Elementary,Public,Mesa,Maricopa,74,95.95,0,6.76,33.308633,-111.68204
454,Arizona,2018-19,Calabasas,Public,Rio Rico,Santa Cruz,74,95.95,1.35,1.35,31.4379237,-110.9682759
455,Arizona,2018-19,Sunrise Elementary,Public,Phoenix,Maricopa,74,95.95,0,5.41,33.6459177,-112.1268754
456,Arizona,2018-19,Liberty Elementary School-85326,Public,Buckeye,Maricopa,49,95.92,0,2.04,33.3791396,-112.4862896
457,Arizona,2018-19,Lowell,Public,Phoenix,Maricopa,49,95.92,0,4.08,33.4361398,-112.0762002
458,Arizona,2018-19,Saint John The Evangelist,Private,Tucson,Pima,49,95.92,0,2.04,32.1783054,-110.978798
459,Arizona,2018-19,Hudson Elementary,Public,Tempe,Maricopa,73,95.89,0,4.11,33.390973,-111.91692
460,Arizona,2018-19,Lindbergh Elementary,Public,Mesa,Maricopa,73,95.89,0,1.37,33.397802,-111.802996
461,Arizona,2018-19,Quentin Elementary,Public,Avondale,Maricopa,73,95.89,0,2.74,33.4256309,-112.2975832
462,Arizona,2018-19,Christ's Greenfield Lutheran,Private,Gilbert,Maricopa,24,95.83,0,4.17,33.358296,-111.737238
463,Arizona,2018-19,Liberty Traditional Charter School - Saddleback,Charter,Douglas,Cochise,24,95.83,0,0,31.3731228,-109.5283581
464,Arizona,2018-19,Stevenson Elementary,Public,Mesa,Maricopa,96,95.83,0,3.13,33.4031638,-111.6250829
465,Arizona,2018-19,Young Scholars Academy,Charter,Bullhead City,Mohave,48,95.83,0,4.17,35.03378,-114.5964614
466,Arizona,2018-19,Lookout Mountain,Public,Phoenix,Maricopa,167,95.81,0,4.79,33.6248858,-112.0755821
467,Arizona,2018-19,Circle Cross K-8 Stem Academy,Public,San Tan Valley,Pinal,71,95.77,1.41,1.41,33.2041506,-111.5710276
468,Arizona,2018-19,Scales Technology Academy,Public,Tempe,Maricopa,71,95.77,0,5.63,33.4248243,-111.9553205
469,Arizona,2018-19,Gladden Farms Elementary,Public,Marana,Pima,94,95.74,0,3.19,32.4328979,-111.2145738
470,Arizona,2018-19,Pueblo Del Sol Middle,Public,Phoenix,Maricopa,47,95.74,0,0,33.4891891,-112.14209
471,Arizona,2018-19,Robison Elementary,Public,Tucson,Pima,47,95.74,0,0,32.2127988,-110.9315702
472,Arizona,2018-19,Saint Thomas The Apostle Catholic,Private,Phoenix,Maricopa,47,95.74,0,6.38,33.5030752,-112.0308315
473,Arizona,2018-19,Senita Valley Elementary,Public,Tucson,Pima,94,95.74,0,4.26,32.140001,-110.7620137
474,Arizona,2018-19,Borton Primary Magnet,Public,Tucson,Pima,70,95.71,1.43,5.71,32.2066527,-110.9585815
475,Arizona,2018-19,Cholla Elementary,Public,Casa Grande,Pinal,70,95.71,2.86,2.86,32.9102974,-111.7363576
476,Arizona,2018-19,Madison Heights Elementary,Public,Phoenix,Maricopa,93,95.7,0,5.38,33.5414834,-112.0354343
477,Arizona,2018-19,Maryland Elementary,Public,Phoenix,Maricopa,93,95.7,0,10.75,33.5325346,-112.1031263
478,Arizona,2018-19,Arlington Elementary,Public,Arlington,Maricopa,23,95.65,4.35,4.35,33.3615484,-112.8158387
479,Arizona,2018-19,Beaver Dam Elementary,Public,Littlefield,Mohave,23,95.65,0,4.35,36.9058299,-113.9288805
480,Arizona,2018-19,Desert Spirit,Public,Glendale,Maricopa,69,95.65,1.45,4.35,33.5441635,-112.2172736
481,Arizona,2018-19,Evergreen Elementary,Public,Casa Grande,Pinal,46,95.65,0,2.17,32.88322,-111.736733
482,Arizona,2018-19,Inca Elementary,Public,Buckeye,Maricopa,69,95.65,0,4.35,33.4276404,-112.5585097
483,Arizona,2018-19,Mesquite Elementary,Public,Casa Grande,Pinal,69,95.65,2.9,0,32.874223,-111.7153662
484,Arizona,2018-19,Sonoma Ranch Elementary,Public,Gilbert,Maricopa,69,95.65,0,2.9,33.3617805,-111.7504835
485,Arizona,2018-19,T Dale Hancock Elementary,Public,Chandler,Maricopa,92,95.65,0,3.26,33.2706359,-111.8524574
486,Arizona,2018-19,Horizon,Public,Glendale,Maricopa,91,95.6,0,8.79,33.5607884,-112.1614556
487,Arizona,2018-19,John E Wright Elementary,Public,Tucson,Pima,91,95.6,2.2,3.3,32.2454767,-110.90078
488,Arizona,2018-19,Ashton Ranch Elementary,Public,Surprise,Maricopa,68,95.59,0,5.88,33.616475,-112.380535
489,Arizona,2018-19,Kyrene De Los Lagos,Public,Phoenix,Maricopa,113,95.58,0,4.42,33.2926108,-112.0083296
490,Arizona,2018-19,Amerischools Academy - Yuma North Campus,Charter,Yuma,Yuma,45,95.56,0,4.44,32.704937,-114.625109
491,Arizona,2018-19,Cottonwood Elementary,Public,Casa Grande,Pinal,67,95.52,1.49,0,32.8966176,-111.7454603
492,Arizona,2018-19,Glenn L Downs,Public,Phoenix,Maricopa,67,95.52,0,2.99,33.4901378,-112.1612316
493,Arizona,2018-19,West Wing,Public,Peoria,Maricopa,89,95.51,0,4.49,33.7270683,-112.2465478
494,Arizona,2018-19,Manzanita Elementary,Public,Phoenix,Maricopa,111,95.5,0,4.5,33.5596978,-112.1441084
495,Arizona,2018-19,Burke Basic,Charter,Mesa,Maricopa,133,95.49,0,0.75,33.3924987,-111.8288752
496,Arizona,2018-19,Cartwright Elementary,Public,Phoenix,Maricopa,66,95.45,0,0,33.4805234,-112.1848885
497,Arizona,2018-19,New World Educational Center,Charter,Phoenix,Maricopa,22,95.45,0,4.55,33.5226136,-112.0656921
498,Arizona,2018-19,Vail Academy & High,Charter,Tucson,Pima,22,95.45,0,0,32.0967099,-110.8274017
499,Arizona,2018-19,Vista College Prep - Maryvale,Charter,Phoenix,Maricopa,44,95.45,0,4.55,33.4665785,-112.1571579
500,Arizona,2018-19,Riverside Traditional,Public,Phoenix,Maricopa,87,95.4,0,3.45,33.434471,-112.1704611
501,Arizona,2018-19,Glenn F Burton,Public,Glendale,Maricopa,65,95.38,0,3.08,33.5300694,-112.1627685
502,Arizona,2018-19,Canyon View Elementary,Public,Tucson,Pima,43,95.35,0,4.65,32.311972,-110.8261727
503,Arizona,2018-19,Cragin Elementary,Public,Tucson,Pima,43,95.35,2.33,2.33,32.26084,-110.9356217
504,Arizona,2018-19,Huachuca City Elementary,Public,Huachuca City,Cochise,43,95.35,0,4.65,31.6321147,-110.3327432
505,Arizona,2018-19,Our Lady Of Mount Carmel,Private,Tempe,Maricopa,43,95.35,0,11.63,33.4047586,-111.9251709
506,Arizona,2018-19,Sky View Elementary,Public,Peoria,Maricopa,43,95.35,0,6.98,33.6032982,-112.2448094
507,Arizona,2018-19,Sturgeon Cromer Elementary,Public,Flagstaff,Coconino,86,95.35,0,3.49,35.268758,-111.5219678
508,Arizona,2018-19,All Saints Catholic,Private,Sierra Vista,Cochise,21,95.24,4.76,4.76,31.4824307,-110.2836169
509,Arizona,2018-19,Arcadia Neighborhood Learning Center,Public,Scottsdale,Maricopa,42,95.24,2.38,4.76,33.4998079,-111.9479771
510,Arizona,2018-19,Basis - Peoria Primary,Charter,Peoria,Maricopa,126,95.24,0,5.56,33.7195525,-112.2700452
511,Arizona,2018-19,Foothills Elementary School-85306,Public,Glendale,Maricopa,63,95.24,0,4.76,33.6289726,-112.1955557
512,Arizona,2018-19,Homer Davis Elementary,Public,Tucson,Pima,63,95.24,0,3.17,32.2846112,-111.0026246
513,Arizona,2018-19,Justine Spitalny Elementary,Public,Phoenix,Maricopa,84,95.24,0,3.57,33.4863584,-112.1576455
514,Arizona,2018-19,Kyrene De La Esperanza,Public,Phoenix,Maricopa,105,95.24,0,8.57,33.3118477,-111.9932957
515,Arizona,2018-19,Our Lady Of Perpetual Help School-85251,Private,Scottsdale,Maricopa,21,95.24,0,4.76,33.4913038,-111.9174801
516,Arizona,2018-19,Verde Christian Academy,Private,Cottonwood,Yavapai,21,95.24,0,4.76,34.7378132,-112.0283081
517,Arizona,2018-19,Sunset Heights Elementary,Public,Peoria,Maricopa,104,95.19,0,5.77,33.6787001,-112.2692308
518,Arizona,2018-19,Richard E Miller,Public,Phoenix,Maricopa,83,95.18,0,4.82,33.5634214,-112.1022498
519,Arizona,2018-19,Frank Elementary,Public,Guadalupe,Maricopa,62,95.16,1.61,1.61,33.3709968,-111.9619747
520,Arizona,2018-19,Curry Elementary,Public,Tempe,Maricopa,103,95.15,0,4.85,33.4032147,-111.9011345
521,Arizona,2018-19,Frances J Warren Elementary,Public,Tucson,Pima,41,95.12,0,2.44,32.1458426,-111.0405452
522,Arizona,2018-19,Laguna Elementary,Public,Tucson,Pima,41,95.12,0,4.88,32.2987302,-111.0299777
523,Arizona,2018-19,Robert Richardson Elementary,Public,Tucson,Pima,41,95.12,0,4.88,32.3315332,-111.0388417
524,Arizona,2018-19,Higley Traditional Academy,Public,Gilbert,Maricopa,102,95.1,0,6.86,33.3098587,-111.7183374
525,Arizona,2018-19,Coyote Hills Elementary,Public,Peoria,Maricopa,61,95.08,0,1.64,33.6755835,-112.2476217
526,Arizona,2018-19,Greenfield Elementary,Public,Gilbert,Maricopa,142,95.07,0,7.75,33.3512173,-111.7351721
527,Arizona,2018-19,Arrowhead Elementary School-85308,Public,Glendale,Maricopa,81,95.06,0,4.94,33.6529328,-112.2187635
528,Arizona,2018-19,Bret Tarver Elementary,Public,Phoenix,Maricopa,81,95.06,0,3.7,33.4977484,-112.1710237
529,Arizona,2018-19,Leman Academy Of Excellence - East Campus,Charter,Tucson,Pima,101,95.05,0,5.94,32.1913042,-110.776639
530,Arizona,2018-19,Carol G. Peck Elementary,Public,Glendale,Maricopa,80,95,1.25,3.75,33.5228225,-112.1655454
531,Arizona,2018-19,Coronado Elementary,Public,Gilbert,Maricopa,80,95,0,6.25,33.2712735,-111.713291
532,Arizona,2018-19,Ishikawa Elementary,Public,Mesa,Maricopa,120,95,0,5.83,33.4633426,-111.7605996
533,Arizona,2018-19,Larry C Kennedy,Public,Phoenix,Maricopa,60,95,0,5,33.4889325,-112.0227618
534,Arizona,2018-19,Oak Tree Elementary,Public,Gilbert,Maricopa,60,95,0,11.67,33.370967,-111.8006442
535,Arizona,2018-19,Palo Verde Elementary,Public,Palo Verde,Maricopa,40,95,2.5,2.5,33.349458,-112.677208
536,Arizona,2018-19,Rattlesnake Ridge Elementary,Public,Tucson,Pima,60,95,0,5,32.360527,-111.123158
537,Arizona,2018-19,Red Rock Elementary,Public,Red Rock,Pinal,40,95,0,5,32.56977,-111.345099
538,Arizona,2018-19,Salida Del Sol Elementary,Public,Yuma,Yuma,140,95,0,2.86,32.7106782,-114.6697393
539,Arizona,2018-19,Sanborn Elementary,Public,Chandler,Maricopa,80,95,0,5,33.3155333,-111.818344
540,Arizona,2018-19,Desert Sage Elementary,Public,Glendale,Maricopa,99,94.95,1.01,5.05,33.7046905,-112.1467275
541,Arizona,2018-19,Robson Elementary,Public,Mesa,Maricopa,79,94.94,0,3.8,33.4016362,-111.7847138
542,Arizona,2018-19,Sonoran Science Academy East,Charter,Tucson,Pima,59,94.92,0,3.39,32.1843076,-110.8340742
543,Arizona,2018-19,Cloves C Campbell Sr Elementary,Public,Phoenix,Maricopa,39,94.87,0,0,33.3718613,-112.0259038
544,Arizona,2018-19,Sun Valley Charter,Charter,Phoenix,Maricopa,77,94.81,0,5.19,33.3770709,-112.1154623
545,Arizona,2018-19,Aguilar,Public,Tempe,Maricopa,95,94.74,0,3.16,33.3696349,-111.9348563
546,Arizona,2018-19,Career Success School - Sage Campus,Charter,Phoenix,Maricopa,38,94.74,0,5.26,33.4844716,-112.0133612
547,Arizona,2018-19,Charles W Sechrist Elementary,Public,Flagstaff,Coconino,76,94.74,1.32,2.63,35.2227924,-111.6537507
548,Arizona,2018-19,Eisenhower Elementary,Public,Mesa,Maricopa,76,94.74,1.32,3.95,33.430714,-111.8233689
549,Arizona,2018-19,Power Ranch Elementary,Public,Gilbert,Maricopa,76,94.74,0,5.26,33.2726492,-111.6964014
550,Arizona,2018-19,Rainbow Valley Elementary,Public,Buckeye,Maricopa,57,94.74,1.75,1.75,33.334833,-112.47635
551,Arizona,2018-19,Settlers Point Elementary,Public,Gilbert,Maricopa,76,94.74,0,3.95,33.3299277,-111.78105
552,Arizona,2018-19,Kyrene De La Mariposa,Public,Tempe,Maricopa,94,94.68,0,6.38,33.326824,-111.935868
553,Arizona,2018-19,Sundance Elementary School-85326,Public,Buckeye,Maricopa,75,94.67,1.33,5.33,33.4386318,-112.5627829
554,Arizona,2018-19,Nautilus Elementary,Public,Lake Havasu City,Mohave,56,94.64,0,5.36,34.5162753,-114.3433765
555,Arizona,2018-19,Ranch Elementary,Public,Queen Creek,Pinal,56,94.64,0,5.36,33.2742766,-111.5447984
556,Arizona,2018-19,Saint Francis Xavier,Private,Phoenix,Maricopa,56,94.64,0,7.14,33.5060428,-112.071216
557,Arizona,2018-19,Highland Lakes,Public,Glendale,Maricopa,93,94.62,0,5.38,33.6574822,-112.1965134
558,Arizona,2018-19,John M Andersen Elementary,Public,Chandler,Maricopa,93,94.62,0,8.6,33.3267778,-111.8731181
559,Arizona,2018-19,Manuel Pena Jr. Elementary,Public,Phoenix,Maricopa,93,94.62,0,5.38,33.4760378,-112.2295715
560,Arizona,2018-19,Luke Elementary,Public,Glendale,Maricopa,74,94.59,0,0,33.5415061,-112.3420244
561,Arizona,2018-19,South Phoenix Prep And Arts Academy,Charter,Phoenix,Maricopa,74,94.59,0,2.7,33.379211,-111.9960612
562,Arizona,2018-19,Sunset Canyon,Public,Phoenix,Maricopa,37,94.59,0,5.41,33.6572647,-112.0227844
563,Arizona,2018-19,Cactus View Elementary,Public,Phoenix,Maricopa,92,94.57,0,5.43,33.6465644,-112.0752095
564,Arizona,2018-19,John Q Thomas Elementary,Public,Flagstaff,Coconino,55,94.55,0,5.45,35.2192938,-111.5993713
565,Arizona,2018-19,Oakwood Elementary,Public,Peoria,Maricopa,110,94.55,0,2.73,33.6022232,-112.2123216
566,Arizona,2018-19,West Point Elementary,Public,Surprise,Maricopa,55,94.55,0,5.45,33.624711,-112.355557
567,Arizona,2018-19,Arizona Desert Elementary,Public,Tolleson,Maricopa,73,94.52,0,5.48,33.4496592,-112.2507777
568,Arizona,2018-19,Thomas M Knoles Elementary,Public,Flagstaff,Coconino,73,94.52,0,6.85,35.1934857,-111.6000587
569,Arizona,2018-19,Cheyenne Traditional Elementary,Public,Scottsdale,Maricopa,91,94.51,1.1,12.09,33.6094946,-111.8661054
570,Arizona,2018-19,Desert Horizon Elementary,Public,Phoenix,Maricopa,91,94.51,0,4.4,33.4859364,-112.2436177
571,Arizona,2018-19,Heatherbrae Elementary,Public,Phoenix,Maricopa,91,94.51,0,3.3,33.4991588,-112.2104588
572,Arizona,2018-19,Legacy Traditional School - Phoenix,Charter,Phoenix,Maricopa,145,94.48,0,4.14,33.5023252,-112.2718826
573,Arizona,2018-19,Bales Elementary,Public,Buckeye,Maricopa,72,94.44,0,4.17,33.3862862,-112.596213
574,Arizona,2018-19,Desert Canyon Elementary,Charter,Scottsdale,Maricopa,72,94.44,0,8.33,33.6268172,-111.8602948
575,Arizona,2018-19,Desert Sonora Elementary,Public,Somerton,Yuma,54,94.44,0,1.85,32.5985641,-114.71445
576,Arizona,2018-19,Imagine Charter School At Bell Canyon,Charter,Phoenix,Maricopa,54,94.44,0,5.56,33.651485,-112.1159705
577,Arizona,2018-19,Lake Valley Elementary,Public,Prescott Valley,Yavapai,54,94.44,0,3.7,34.5977224,-112.3520052
578,Arizona,2018-19,Santan Elementary,Public,Chandler,Maricopa,72,94.44,0,2.78,33.2355021,-111.8138299
579,Arizona,2018-19,Starline Elementary,Public,Lake Havasu City,Mohave,72,94.44,0,5.56,34.4842252,-114.2965363
580,Arizona,2018-19,Superstition Springs Elementary,Public,Mesa,Maricopa,108,94.44,0,6.48,33.368267,-111.680688
581,Arizona,2018-19,Surprise Elementary,Public,El Mirage,Maricopa,90,94.44,0,4.44,33.6213733,-112.3377316
582,Arizona,2018-19,Tavan Elementary,Public,Phoenix,Maricopa,108,94.44,0.93,7.41,33.4888701,-111.9816979
583,Arizona,2018-19,Centennial Elementary,Public,Gilbert,Maricopa,89,94.38,0,8.99,33.2857883,-111.696751
584,Arizona,2018-19,Sunset,Public,Glendale,Maricopa,71,94.37,0,7.04,33.575603,-112.1589495
585,Arizona,2018-19,Dwight Patterson Elementary,Public,Mesa,Maricopa,88,94.32,0,5.68,33.403229,-111.6046996
586,Arizona,2018-19,W Arthur Sewel Elementary,Public,Tucson,Pima,35,94.29,0,8.57,32.2269962,-110.8668848
587,Arizona,2018-19,Kyrene Del Sureno,Public,Chandler,Maricopa,87,94.25,1.15,5.75,33.31067,-111.901014
588,Arizona,2018-19,Anthem,Public,Anthem,Maricopa,52,94.23,0,9.62,33.8573531,-112.1318556
589,Arizona,2018-19,Mesa Verde Elementary,Public,Tucson,Pima,52,94.23,0,3.85,32.3584508,-111.0027317
590,Arizona,2018-19,Tonalea Elementary,Private,Scottsdale,Maricopa,52,94.23,0,1.92,33.458973,-111.9376576
591,Arizona,2018-19,Copper Ridge Elementary,Public,Corona De Tucson,Pima,69,94.2,0,2.9,31.9355379,-110.8005911
592,Arizona,2018-19,Alhambra Traditional,Public,Phoenix,Maricopa,86,94.19,0,2.33,33.5216448,-112.1160123
593,Arizona,2018-19,Butterfield Elementary,Public,Maricopa,Pinal,86,94.19,1.16,4.65,33.0587203,-112.0380135
594,Arizona,2018-19,Boulder Creek Elementary,Public,Phoenix,Maricopa,102,94.12,0,6.86,33.693649,-112.035676
595,Arizona,2018-19,Gateway Pointe Elementary,Public,Higley,Maricopa,85,94.12,0,7.06,33.313294,-111.6947652
596,Arizona,2018-19,Lone Mountain Elementary,Public,Cave Creek,Maricopa,51,94.12,0,9.8,33.7629463,-111.9678608
597,Arizona,2018-19,Leman Academy Of Excellence - Oro Valley,Charter,Oro Valley,Pima,118,94.07,0.85,6.78,32.4281813,-110.9956472
598,Arizona,2018-19,Lattie Coor,Public,Avondale,Maricopa,168,94.05,0,1.19,33.446299,-112.353069
599,Arizona,2018-19,Legacy Traditional School Surprise,Charter,Surprise,Maricopa,218,94.04,1.38,8.26,33.6029587,-112.3721955
600,Arizona,2018-19,Ruth Powell Elementary,Public,Safford,Graham,67,94.03,0,0,32.8282678,-109.7233589
601,Arizona,2018-19,Broadmor Elementary,Public,Tempe,Maricopa,117,94.02,0,6.84,33.4051118,-111.934417
602,Arizona,2018-19,Shaw Butte,Public,Phoenix,Maricopa,117,94.02,0,3.42,33.5983179,-112.104683
603,Arizona,2018-19,Paramount Academy,Charter,Peoria,Maricopa,50,94,2,2,33.5652261,-112.2969757
604,Arizona,2018-19,Sweetwater,Public,Glendale,Maricopa,50,94,0,8,33.6041382,-112.1567389
605,Arizona,2018-19,Marionneaux Elementary,Public,Buckeye,Maricopa,83,93.98,0,3.61,33.3989767,-112.5702411
606,Arizona,2018-19,Sequoya Elementary,Public,Scottsdale,Maricopa,83,93.98,0,12.05,33.592824,-111.944031
607,Arizona,2018-19,Dietz K-8,Public,Tucson,Pima,33,93.94,0,6.06,32.1997354,-110.8308625
608,Arizona,2018-19,Lafe Nelson,Public,Safford,Graham,66,93.94,0,4.55,32.8271708,-109.7196115
609,Arizona,2018-19,Phoenix Country Day,Private,Paradise Valley,Maricopa,33,93.94,0,9.09,33.5159665,-111.9977078
610,Arizona,2018-19,Ralph Waldo Emerson Elementary,Public,Phoenix,Maricopa,33,93.94,0,6.06,33.468794,-112.061862
611,Arizona,2018-19,Tuba City Elementary,Public,Tuba City,Coconino,66,93.94,0,0,36.1397237,-111.2414806
612,Arizona,2018-19,Vista College Preparatory,Charter,Phoenix,Maricopa,66,93.94,0,6.06,33.4394402,-112.0818424
613,Arizona,2018-19,Legacy Traditional School - Avondale,Charter,Avondale,Maricopa,148,93.92,0,6.76,33.4503723,-112.3246017
614,Arizona,2018-19,Desert Valley Elementary,Public,Bullhead City,Mohave,115,93.91,0,6.09,35.100686,-114.609326
615,Arizona,2018-19,Gateway Polytechnic Academy,Public,Mesa,Maricopa,164,93.9,0,6.1,33.323362,-111.5993876
616,Arizona,2018-19,Imagine Middle At Camelback,Charter,Phoenix,Maricopa,98,93.88,0,2.04,33.5108428,-112.1003092
617,Arizona,2018-19,Pendergast Elementary,Public,Phoenix,Maricopa,98,93.88,0,6.12,33.4910643,-112.2557027
618,Arizona,2018-19,Steven R Jasinski Elementary,Public,Buckeye,Maricopa,65,93.85,0,6.15,33.4072299,-112.5814348
619,Arizona,2018-19,Chandler Traditional Academy - Freedom,Public,Gilbert,Maricopa,81,93.83,0,6.17,33.2404439,-111.723674
620,Arizona,2018-19,Madison Richard Simis,Public,Phoenix,Maricopa,162,93.83,0,11.11,33.5427942,-112.0619254
621,Arizona,2018-19,Mesquite Elementary,Public,Tucson,Pima,81,93.83,0,2.47,32.1154897,-110.7910081
622,Arizona,2018-19,Sunrise Drive Elementary,Public,Tucson,Pima,81,93.83,0,3.7,32.3107608,-110.87944
623,Arizona,2018-19,Buckeye Primary,Public,Buckeye,Maricopa,97,93.81,0,7.22,33.4275139,-112.6006073
624,Arizona,2018-19,Neely Traditional Academy,Public,Gilbert,Maricopa,113,93.81,0,7.08,33.360234,-111.7974713
625,Arizona,2018-19,Basis Scottsdale Primary,Charter,Scottsdale,Maricopa,129,93.8,0,6.98,33.5903319,-111.7879557
626,Arizona,2018-19,Barbara Bush Elementary,Public,Mesa,Maricopa,80,93.75,1.25,7.5,33.4467508,-111.7238975
627,Arizona,2018-19,Canyon Elementary,Public,Glendale,Maricopa,32,93.75,0,0,33.6338371,-112.1759571
628,Arizona,2018-19,Desert View Elementary,Public,Phoenix,Maricopa,48,93.75,0,4.17,33.563145,-112.0686294
629,Arizona,2018-19,Dobson Academy A-Ball Charter,Charter,Chandler,Maricopa,48,93.75,0,6.25,33.3393438,-111.8754366
630,Arizona,2018-19,Kyrene De La Colina,Public,Phoenix,Maricopa,64,93.75,0,4.69,33.3234463,-112.0066774
631,Arizona,2018-19,Mirage Elementary,Public,Glendale,Maricopa,64,93.75,0,6.25,33.6486402,-112.1441271
632,Arizona,2018-19,Sonoran Foothills,Public,Phoenix,Maricopa,96,93.75,0,3.13,33.7754491,-112.105997
633,Arizona,2018-19,Twin Peaks Elementary,Public,Tucson,Pima,112,93.75,0,6.25,32.3742948,-111.1337743
634,Arizona,2018-19,Basis - Phoenix Primary,Charter,Phoenix,Maricopa,127,93.7,0,7.87,33.5938576,-112.0141957
635,Arizona,2018-19,Cheatham Elementary,Public,Laveen,Maricopa,95,93.68,2.11,7.37,33.368896,-112.15967
636,Arizona,2018-19,Collier Elementary,Public,Avondale,Maricopa,95,93.68,0,3.16,33.4417275,-112.3125414
637,Arizona,2018-19,Kyrene De Las Manitas,Public,Tempe,Maricopa,79,93.67,0,8.86,33.3235344,-111.9579618
638,Arizona,2018-19,Carminati,Public,Tempe,Maricopa,63,93.65,0,6.35,33.3869852,-111.9295196
639,Arizona,2018-19,Shumway Elementary,Public,Chandler,Maricopa,63,93.65,0,7.94,33.3268619,-111.8191481
640,Arizona,2018-19,Acacia Elementary,Public,Vail,Pima,110,93.64,0.91,1.82,32.0422363,-110.7172617
641,Arizona,2018-19,All Saints Episcopal Day,Private,Phoenix,Maricopa,47,93.62,0,8.51,33.5297201,-112.0745671
642,Arizona,2018-19,Desert Oasis Elementary School-85387,Public,Surprise,Maricopa,47,93.62,0,6.38,33.728268,-112.431304
643,Arizona,2018-19,Pioneer Elementary School-85306,Public,Glendale,Maricopa,47,93.62,0,4.26,33.6192444,-112.1958595
644,Arizona,2018-19,Queen Creek Elementary,Public,Queen Creek,Maricopa,94,93.62,0,5.32,33.2331381,-111.6438933
645,Arizona,2018-19,Mcdowell Mountain Elementary,Public,Fountain Hills,Maricopa,78,93.59,1.28,6.41,33.6203278,-111.7279254
646,Arizona,2018-19,Wood Elementary,Public,Tempe,Maricopa,78,93.59,0,3.85,33.3707539,-111.9517587
647,Arizona,2018-19,Cortina Elementary,Public,Queen Creek,Maricopa,109,93.58,0,12.84,33.2710378,-111.6772692
648,Arizona,2018-19,Arrowhead Elementary School-85032,Public,Phoenix,Maricopa,31,93.55,0,3.23,33.6234124,-111.9992914
649,Arizona,2018-19,Parkview Elementary,Public,Surprise,Maricopa,62,93.55,0,11.29,33.6301407,-112.383625
650,Arizona,2018-19,Fuller Elementary,Public,Tempe,Maricopa,108,93.52,0.93,24.07,33.3724188,-111.90067
651,Arizona,2018-19,Macarthur Elementary,Public,Mesa,Maricopa,77,93.51,0,6.49,33.4439129,-111.7995143
652,Arizona,2018-19,Hearn Academy,Charter,Phoenix,Maricopa,61,93.44,0,6.56,33.6453351,-112.0830672
653,Arizona,2018-19,Jack Barnes Elementary,Public,Queen Creek,Maricopa,61,93.44,0,4.92,33.2610038,-111.6230357
654,Arizona,2018-19,Kingswood Elementary,Public,Surprise,Maricopa,61,93.44,3.28,4.92,33.6415049,-112.3868851
655,Arizona,2018-19,Kyrene De La Sierra,Public,Phoenix,Maricopa,61,93.44,0,4.92,33.2962376,-112.0584156
656,Arizona,2018-19,Robles Elementary,Public,Tucson,Pima,61,93.44,0,1.64,32.067212,-111.3190047
657,Arizona,2018-19,Archway Classical Academy Glendale,Charter,Peoria,Maricopa,91,93.41,0,8.79,33.6945564,-112.2380264
658,Arizona,2018-19,Arts Academy At Estrella Mountain,Charter,Phoenix,Maricopa,121,93.39,0.83,1.65,33.4244079,-112.2566837
659,Arizona,2018-19,Echo Mountain Primary,Private,Phoenix,Maricopa,136,93.38,0,5.15,33.6497322,-112.0431108
660,Arizona,2018-19,Acacia Elementary,Public,Phoenix,Maricopa,120,93.33,0,7.5,33.6161736,-112.1246487
661,Arizona,2018-19,Degrazia Elementary,Public,Tucson,Pima,75,93.33,1.33,5.33,32.3735599,-111.0730297
662,Arizona,2018-19,Gila Crossing Community,Public,Laveen,Maricopa,60,93.33,0,0,33.2894631,-112.1599989
663,Arizona,2018-19,Madison Rose Lane,Public,Phoenix,Maricopa,165,93.33,0,6.67,33.5271534,-112.0572335
664,Arizona,2018-19,Martin Luther King Jr Elementary,Charter,Phoenix,Maricopa,75,93.33,0,2.67,33.404482,-112.032918
665,Arizona,2018-19,Dilworth Brinton Elementary,Public,Mesa,Maricopa,74,93.24,0,6.76,33.3965597,-111.5828991
666,Arizona,2018-19,Florence K-8,Public,Florence,Pinal,74,93.24,0,5.41,33.0284785,-111.3847369
667,Arizona,2018-19,Mesquite Elementary,Public,Gilbert,Maricopa,74,93.24,0,9.46,33.3438209,-111.7675213
668,Arizona,2018-19,Bridges Elementary,Public,Gilbert,Maricopa,103,93.2,1.94,10.68,33.2556059,-111.7060982
669,Arizona,2018-19,Silvestre S Herrera,Public,Phoenix,Maricopa,44,93.18,0,2.27,33.4349117,-112.0591877
670,Arizona,2018-19,Ward Traditional Academy,Public,Tempe,Maricopa,44,93.18,0,9.09,33.386853,-111.9018393
671,Arizona,2018-19,Chandler Traditional Academy - Liberty Campus,Public,Chandler,Maricopa,117,93.16,0,9.4,33.3125868,-111.7964647
672,Arizona,2018-19,Country Gardens Charter,Charter,Laveen,Maricopa,29,93.1,0,6.9,33.3902429,-112.1948105
673,Arizona,2018-19,Ridgeline Academy,Charter,Phoenix,Maricopa,87,93.1,0,6.9,33.7899255,-112.1208598
674,Arizona,2018-19,Manuel Demiguel Elementary,Public,Flagstaff,Coconino,101,93.07,0,6.93,35.1678922,-111.6812573
675,Arizona,2018-19,American Leadership Academy Anthem South Campus,Charter,Florence,Pinal,72,93.06,0,5.56,33.0723533,-111.4877326
676,Arizona,2018-19,Holdeman Elementary,Public,Tempe,Maricopa,72,93.06,0,4.17,33.4099796,-111.9596696
677,Arizona,2018-19,Taylor Hicks,Public,Prescott,Yavapai,72,93.06,0,11.11,34.5724834,-112.4726203
678,Arizona,2018-19,Destiny,Charter,Globe,Gila,43,93.02,0,6.98,33.3911484,-110.766613
679,Arizona,2018-19,Kyrene De Las Lomas,Public,Phoenix,Maricopa,86,93.02,0,6.98,33.3391423,-111.9956052
680,Arizona,2018-19,Webster Elementary,Public,Mesa,Maricopa,86,93.02,0,2.33,33.4188848,-111.8711888
681,Arizona,2018-19,Naylor Middle,Public,Tucson,Pima,57,92.98,3.51,1.75,32.2024269,-110.8993447
682,Arizona,2018-19,Basha Elementary,Public,Chandler,Maricopa,71,92.96,0,7.04,33.2537553,-111.857447
683,Arizona,2018-19,Rover Elementary,Public,Tempe,Maricopa,71,92.96,0,5.63,33.3697648,-111.9179998
684,Arizona,2018-19,Anthem K-8,Public,Florence,Pinal,85,92.94,0,7.06,33.0578995,-111.4756063
685,Arizona,2018-19,Mercury Mine Elementary,Public,Phoenix,Maricopa,84,92.86,0,5.95,33.5737697,-112.0223039
686,Arizona,2018-19,Mexicayotl Charter,Charter,Nogales,Santa Cruz,28,92.86,3.57,0,31.369546,-110.931349
687,Arizona,2018-19,Painted Sky Elementary,Public,Tucson,Pima,56,92.86,0,7.14,32.435504,-110.97015
688,Arizona,2018-19,Peoria Traditional,Public,Peoria,Maricopa,42,92.86,0,7.14,33.6755835,-112.2476218
689,Arizona,2018-19,Thornydale Elementary,Public,Tucson,Pima,42,92.86,0,4.76,32.3458412,-111.056566
690,Arizona,2018-19,Charlotte Patterson Elementary,Public,Gilbert,Maricopa,139,92.81,0.72,7.91,33.2144394,-111.7405057
691,Arizona,2018-19,Round Valley Intermediate,Public,Eagar,Apache,125,92.8,0,4.8,34.1075711,-109.2851326
692,Arizona,2018-19,Robert And Danell Tarwater Elementary,Public,Chandler,Maricopa,111,92.79,0,8.11,33.2720268,-111.866709
693,Arizona,2018-19,Trailside Point Elementary,Public,Laveen,Maricopa,111,92.79,0,2.7,33.3851008,-112.2148014
694,Arizona,2018-19,Archway Classical Academy - Chandler,Charter,Chandler,Maricopa,83,92.77,0,8.43,33.3338235,-111.8568315
695,Arizona,2018-19,Alta Loma,Public,Peoria,Maricopa,69,92.75,0,1.45,33.5725312,-112.2478026
696,Arizona,2018-19,Augusta Ranch Elementary,Public,Mesa,Maricopa,138,92.75,0.72,7.25,33.3674063,-111.6312752
697,Arizona,2018-19,Esmond Station,Public,Tucson,Pima,69,92.75,0,7.25,32.0820201,-110.7549341
698,Arizona,2018-19,Wildflower,Public,Goodyear,Maricopa,69,92.75,0,11.59,33.443122,-112.4068937
699,Arizona,2018-19,Havasupai Elementary,Public,Lake Havasu City,Mohave,55,92.73,0,3.64,34.509351,-114.31573
700,Arizona,2018-19,Highland Park Elementary,Charter,Gilbert,Maricopa,110,92.73,0,7.27,33.354782,-111.710358
701,Arizona,2018-19,Kyrene De La Mirada,Public,Chandler,Maricopa,109,92.66,0,8.26,33.3126251,-111.9370902
702,Arizona,2018-19,Granville Elementary,Public,Prescott Valley,Yavapai,68,92.65,0,7.35,34.6177913,-112.3466298
703,Arizona,2018-19,John Jacobs Elementary,Public,Phoenix,Maricopa,68,92.65,0,7.35,33.6176158,-112.1090948
704,Arizona,2018-19,Legacy Traditional School - Casa Grande,Charter,Casa Grande,Pinal,136,92.65,0,7.35,32.901193,-111.733145
705,Arizona,2018-19,Saint John Xxiii Catholic,Private,Scottsdale,Maricopa,68,92.65,0,8.82,33.6347058,-111.9512159
706,Arizona,2018-19,Christ Lutheran,Private,Phoenix,Maricopa,54,92.59,0,7.41,33.4948003,-111.997541
707,Arizona,2018-19,Desert Valley Elementary,Public,Glendale,Maricopa,54,92.59,0,3.7,33.6021421,-112.1933202
708,Arizona,2018-19,Entz Elementary,Public,Mesa,Maricopa,108,92.59,1.85,7.41,33.4306176,-111.7416322
709,Arizona,2018-19,International School Of Tucson,Private,Tucson,Pima,27,92.59,0,11.11,32.2473481,-110.9459695
710,Arizona,2018-19,Peralta Trail Elementary,Public,Gold Canyon,Pinal,54,92.59,0,5.56,33.342719,-111.427578
711,Arizona,2018-19,Sunset Hills Elementary,Public,Surprise,Maricopa,81,92.59,0,8.64,33.6200581,-112.4422497
712,Arizona,2018-19,Noah Webster Schools - Mesa,Private,Mesa,Maricopa,148,92.57,0,6.76,33.378849,-111.674566
713,Arizona,2018-19,Franklin Elementary,Public,Mesa,Maricopa,94,92.55,0,7.45,33.4003899,-111.7941436
714,Arizona,2018-19,Las Sendas Elementary,Public,Mesa,Maricopa,94,92.55,0,7.45,33.4729497,-111.6775167
715,Arizona,2018-19,Washington Elementary School-85202,Public,Mesa,Maricopa,67,92.54,0,7.46,33.3842985,-111.880194
716,Arizona,2018-19,Westar Elementary,Public,Goodyear,Maricopa,67,92.54,0,10.45,33.3255355,-112.4316609
717,Arizona,2018-19,Center For Academic Success #5,Charter,Sierra Vista,Cochise,40,92.5,0,7.5,31.557625,-110.290178
718,Arizona,2018-19,Legacy Traditional School - North Chandler,Charter,Chandler,Maricopa,120,92.5,0,7.5,33.3341108,-111.8254036
719,Arizona,2018-19,Pioneer Elementary School-85234,Public,Gilbert,Maricopa,80,92.5,0,7.5,33.376456,-111.737999
720,Arizona,2018-19,Sonoran Sky Elementary School-85260,Public,Scottsdale,Maricopa,93,92.47,1.08,10.75,33.602699,-111.920708
721,Arizona,2018-19,Bernard Black Elementary,Public,Phoenix,Maricopa,53,92.45,0,5.66,33.38831,-112.117302
722,Arizona,2018-19,Chaparral Elementary School-85295,Public,Gilbert,Maricopa,132,92.42,0,3.79,33.301223,-111.7174025
723,Arizona,2018-19,Leman Academy Of Excellence - Marana,Charter,Tucson,Pima,132,92.42,0.76,8.33,32.3474053,-111.0967126
724,Arizona,2018-19,Audrey & Robert Ryan Elementary,Public,Chandler,Maricopa,79,92.41,1.27,7.59,33.2384452,-111.7804599
725,Arizona,2018-19,Sonoran Heights Elementary,Public,Surprise,Maricopa,79,92.41,1.27,10.13,33.5880883,-112.4003293
726,Arizona,2018-19,Basis - Scottsdale Primary West Campus,Charter,Scottsdale,Maricopa,92,92.39,1.09,6.52,33.6299188,-111.9181112
727,Arizona,2018-19,Legend Springs Elementary,Public,Glendale,Maricopa,92,92.39,0,7.61,33.677765,-112.192254
728,Arizona,2018-19,Ellsworth Elementary,Public,Queen Creek,Pinal,105,92.38,0,7.62,33.2283449,-111.5552573
729,Arizona,2018-19,Basis Phoenix Central Primary,Charter,Phoenix,Maricopa,104,92.31,0,7.69,33.4919392,-112.0711963
730,Arizona,2018-19,Combs Traditional,Public,San Tan Valley,Pinal,52,92.31,0,9.62,33.2186792,-111.5618286
731,Arizona,2018-19,C W Mcgraw Elementary,Public,Yuma,Yuma,90,92.22,0,1.11,32.6854325,-114.6152072
732,Arizona,2018-19,Cimarron Springs Elementary,Public,Surprise,Maricopa,90,92.22,0,7.78,33.627252,-112.4257937
733,Arizona,2018-19,Horseshoe Trails Elementary,Public,Phoenix,Maricopa,90,92.22,0,7.78,33.7322765,-111.9667811
734,Arizona,2018-19,Stetson Hills Elementary,Public,Glendale,Maricopa,90,92.22,0,8.89,33.717776,-112.150806
735,Arizona,2018-19,Paradise Honors Middle,Charter,Surprise,Maricopa,191,92.15,0,8.38,33.6003278,-112.4348541
736,Arizona,2018-19,Cavett Elementary,Public,Tucson,Pima,38,92.11,2.63,2.63,32.1883298,-110.9400923
737,Arizona,2018-19,Ed & Verma Pastor Elementary,Public,Phoenix,Maricopa,38,92.11,0,5.26,33.3872969,-112.104358
738,Arizona,2018-19,Gilbert Elementary,Public,Gilbert,Maricopa,76,92.11,0,7.89,33.3493479,-111.7923326
739,Arizona,2018-19,Liberty Traditional Charter,Charter,Phoenix,Maricopa,38,92.11,0,0,33.494425,-112.16568
740,Arizona,2018-19,Roosevelt,Public,Yuma,Yuma,38,92.11,0,5.26,32.7182019,-114.6264111
741,Arizona,2018-19,Desert Shadows Elementary,Public,Scottsdale,Maricopa,63,92.06,0,4.76,33.6060362,-111.9537305
742,Arizona,2018-19,Desert Willow Elementary,Public,Casa Grande,Pinal,63,92.06,0,4.76,32.9146758,-111.7117199
743,Arizona,2018-19,Kinsey Inquiry And Discovery,Public,Flagstaff,Coconino,63,92.06,0,11.11,35.1805058,-111.6488383
744,Arizona,2018-19,Prescott Valley,Charter,Prescott Valley,Yavapai,63,92.06,0,9.52,34.5820292,-112.299899
745,Arizona,2018-19,Happy Valley School - East Campus,Charter,Queen Creek,Pinal,88,92.05,0,11.36,33.2594271,-111.5623269
746,Arizona,2018-19,Griffith Elementary,Public,Phoenix,Maricopa,100,92,2,2,33.4685778,-111.9830833
747,Arizona,2018-19,Rogers Ranch,Public,Laveen,Maricopa,125,92,0,7.2,33.3852284,-112.159555
748,Arizona,2018-19,Sahuaro Ranch Elementary,Public,Glendale,Maricopa,75,92,0,0,33.579647,-112.194647
749,Arizona,2018-19,Cactus Wren Elementary,Public,Phoenix,Maricopa,62,91.94,0,11.29,33.5742265,-112.144036
750,Arizona,2018-19,Academy Of Tucson Elementary,Charter,Tucson,Pima,37,91.89,0,13.51,32.2439556,-110.7963135
751,Arizona,2018-19,American Leadership Academy - San Tan,Charter,Queen Creek,Maricopa,111,91.89,0.9,11.71,33.194201,-111.590436
752,Arizona,2018-19,Canyon Rim Elementary,Public,Mesa,Maricopa,111,91.89,0,8.11,33.3605634,-111.6276118
753,Arizona,2018-19,Mayer Elementary,Public,Mayer,Yavapai,37,91.89,0,8.11,34.4013428,-112.2430953
754,Arizona,2018-19,Noah Webster Schools-Pima,Charter,Scottsdale,Maricopa,74,91.89,0,8.11,33.515195,-111.891563
755,Arizona,2018-19,Manzanita Elementary,Public,Kingman,Mohave,123,91.87,0,8.94,35.214669,-114.0174322
756,Arizona,2018-19,Burk Elementary,Public,Gilbert,Maricopa,61,91.8,3.28,1.64,33.3589846,-111.7812753
757,Arizona,2018-19,Desert Star,Public,Goodyear,Maricopa,61,91.8,1.64,4.92,33.427006,-112.396209
758,Arizona,2018-19,Milestones Charter,Charter,Phoenix,Maricopa,61,91.8,0,4.92,33.6507837,-111.9790649
759,Arizona,2018-19,Village Meadows Elementary,Public,Phoenix,Maricopa,73,91.78,0,6.85,33.6491904,-112.1035734
760,Arizona,2018-19,Christ The King Catholic,Private,Mesa,Maricopa,24,91.67,0,8.33,33.411591,-111.7973202
761,Arizona,2018-19,Desert Harbor Elementary,Charter,Peoria,Maricopa,72,91.67,0,0,33.6254719,-112.2529319
762,Arizona,2018-19,Great Hearts Academies - Archway Veritas,Charter,Phoenix,Maricopa,120,91.67,0.83,15,33.4842491,-111.9622693
763,Arizona,2018-19,Kerr Elementary,Public,Mesa,Maricopa,72,91.67,0,6.94,33.4436479,-111.8281293
764,Arizona,2018-19,Le Pera Elementary,Public,Parker,La Paz,24,91.67,0,0,33.941498,-114.4323891
765,Arizona,2018-19,Mountain View Elementary,Public,Prescott Valley,Yavapai,60,91.67,0,8.33,34.6035623,-112.3135418
766,Arizona,2018-19,Mountain View Preparatory,Public,Cottonwood,Yavapai,48,91.67,0,8.33,34.6974801,-111.9933735
767,Arizona,2018-19,Paragon Science Academy,Charter,Chandler,Maricopa,48,91.67,0,8.33,33.317256,-111.892815
768,Arizona,2018-19,Sun Valley Elementary,Public,Peoria,Maricopa,84,91.67,0,3.57,33.5582457,-112.2632646
769,Arizona,2018-19,Ira A Fulton Elementary,Public,Chandler,Maricopa,107,91.59,0,12.15,33.2359902,-111.8467977
770,Arizona,2018-19,Haley Elementary,Public,Chandler,Maricopa,142,91.55,0.7,11.27,33.2569149,-111.775528
771,Arizona,2018-19,Santa Cruz Elementary,Public,Maricopa,Pinal,71,91.55,0,9.86,33.0598508,-111.9551876
772,Arizona,2018-19,Estrella Mountain Elementary,Public,Goodyear,Maricopa,47,91.49,0,8.51,33.3528516,-112.4435365
773,Arizona,2018-19,Falcon Hill Elementary,Public,Mesa,Maricopa,94,91.49,0,9.57,33.4465807,-111.6734183
774,Arizona,2018-19,Palm Valley Elementary,Public,Avondale,Maricopa,117,91.45,0,7.69,33.4776779,-112.3495778
775,Arizona,2018-19,James Kendall Zaharis Elementary,Public,Mesa,Maricopa,105,91.43,0,6.67,33.4551951,-111.6276759
776,Arizona,2018-19,Ocotillo Ridge Elementary,Public,Vail,Pima,70,91.43,1.43,4.29,32.0672105,-110.7033276
777,Arizona,2018-19,Terramar Elementary,Public,Peoria,Maricopa,93,91.4,0,10.75,33.7117716,-112.2095406
778,Arizona,2018-19,Copperwood,Public,Glendale,Maricopa,81,91.36,0,6.17,33.5879273,-112.1996868
779,Arizona,2018-19,Advance U,Charter,Phoenix,Maricopa,23,91.3,0,8.7,33.392013,-112.068009
780,Arizona,2018-19,American Leadership Academy - Mesa,Charter,Mesa,Maricopa,69,91.3,0,11.59,33.3333953,-111.5910849
781,Arizona,2018-19,Colegio Petite,Private,Nogales,Santa Cruz,46,91.3,0,2.17,31.3479088,-110.9276584
782,Arizona,2018-19,Kyrene Del Milenio,Public,Phoenix,Maricopa,92,91.3,0,6.52,33.298655,-111.9835997
783,Arizona,2018-19,Porfirio H. Gonzales Elementary,Public,Tolleson,Maricopa,92,91.3,0,2.17,33.4559517,-112.2615009
784,Arizona,2018-19,Self Development Charter,Charter,Mesa,Maricopa,92,91.3,0,8.7,33.446484,-111.735352
785,Arizona,2018-19,Verrado Heritage Elementary,Public,Buckeye,Maricopa,92,91.3,0,7.61,33.4776022,-112.5085894
786,Arizona,2018-19,Westland School Brighton Campus,Charter,Glendale,Maricopa,23,91.3,0,0,33.553842,-112.245677
787,Arizona,2018-19,Dysart Elementary,Public,El Mirage,Maricopa,80,91.25,0,8.75,33.588014,-112.33862
788,Arizona,2018-19,Imagine Elementary At Desert West,Charter,Phoenix,Maricopa,160,91.25,0,10,33.4669635,-112.2051496
789,Arizona,2018-19,Vistancia Elementary,Public,Peoria,Maricopa,124,91.13,0,7.26,33.755255,-112.332093
790,Arizona,2018-19,Abia Judd Elementary,Public,Prescott,Yavapai,90,91.11,0,1.11,34.5715249,-112.4988067
791,Arizona,2018-19,Copper Ridge,Public,Scottsdale,Maricopa,45,91.11,0,8.89,33.6672388,-111.8649148
792,Arizona,2018-19,Heritage,Public,Glendale,Maricopa,45,91.11,6.67,4.44,33.5750958,-112.174272
793,Arizona,2018-19,Johnson Elementary,Public,Mesa,Maricopa,90,91.11,0,10,33.4002155,-111.7479973
794,Arizona,2018-19,Saint Gregory,Private,Phoenix,Maricopa,45,91.11,0,6.67,33.4882588,-112.0983892
795,Arizona,2018-19,Kyrene Del Cielo,Public,Chandler,Maricopa,112,91.07,0,4.46,33.326902,-111.9175026
796,Arizona,2018-19,Oasis Elementary,Public,Peoria,Maricopa,78,91.03,0,6.41,33.6018136,-112.226852
797,Arizona,2018-19,Sequoia Pathway Academy,Charter,Maricopa,Pinal,78,91.03,0,8.97,33.0555862,-112.0100783
798,Arizona,2018-19,Sunrise Elementary,Public,Bullhead City,Mohave,89,91.01,0,6.74,35.157487,-114.544291
799,Arizona,2018-19,Kingman Academy Of Learning - Primary,Charter,Kingman,Mohave,100,91,2,8,35.223614,-114.0282912
800,Arizona,2018-19,Biltmore Preparatory Academy,Public,Phoenix,Maricopa,77,90.91,5.19,5.19,33.505275,-112.0095222
801,Arizona,2018-19,Center For Academic Success #3,Charter,Douglas,Cochise,33,90.91,0,0,31.3372224,-109.5475932
802,Arizona,2018-19,Children Reaching For The Sky Preparatory,Charter,Tucson,Pima,33,90.91,0,6.06,32.2003814,-110.9102104
803,Arizona,2018-19,Cottonwood Community,Public,Cottonwood,Yavapai,66,90.91,0,9.09,34.7403162,-112.0243375
804,Arizona,2018-19,Desert Thunder,Public,Goodyear,Maricopa,99,90.91,0,6.06,33.4565765,-112.4183431
805,Arizona,2018-19,Edison Elementary,Public,Mesa,Maricopa,99,90.91,0,10.1,33.4251497,-111.8129689
806,Arizona,2018-19,Mesa Arts Academy,Charter,Mesa,Maricopa,22,90.91,0,9.09,33.403925,-111.8362292
807,Arizona,2018-19,Mohave Accelerated Elementary East,Charter,Bullhead City,Mohave,22,90.91,0,0,35.158235,-114.546283
808,Arizona,2018-19,Picture Rocks Elementary,Public,Tucson,Pima,77,90.91,0,6.49,32.311427,-111.236094
809,Arizona,2018-19,Summit Academy,Public,Chandler,Maricopa,88,90.91,0,10.23,33.3554202,-111.8706247
810,Arizona,2018-19,Adams Traditional Academy,Charter,Phoenix,Maricopa,109,90.83,0,9.17,33.695116,-112.11
811,Arizona,2018-19,Wildfire Elementary,Public,Phoenix,Maricopa,65,90.77,0,9.23,33.6933221,-111.9879909
812,Arizona,2018-19,Payson Elementary,Public,Payson,Gila,162,90.74,0.62,11.11,34.2611429,-111.3155228
813,Arizona,2018-19,Sonoran Sky Elementary School-85307,Public,Glendale,Maricopa,54,90.74,0,7.41,33.5165579,-112.2775007
814,Arizona,2018-19,Franklin At Brimhall Elementary,Public,Mesa,Maricopa,140,90.71,0,11.43,33.3925647,-111.7250132
815,Arizona,2018-19,Greenway Elementary,Public,Bisbee,Cochise,43,90.7,0,0,31.4168399,-109.88109
816,Arizona,2018-19,Hassayampa Elementary,Public,Wickenburg,Maricopa,43,90.7,0,4.65,33.9686381,-112.7281653
817,Arizona,2018-19,Legacy Traditional Charter School - Laveen Village,Charter,Laveen,Maricopa,118,90.68,0.85,7.63,33.3750516,-112.1528722
818,Arizona,2018-19,Legacy Traditional School- East Mesa,Charter,Mesa,Maricopa,128,90.63,0,12.5,33.3632471,-111.6025476
819,Arizona,2018-19,Trinity Lutheran Elementary,Private,Litchfield Park,Maricopa,32,90.63,0,12.5,33.4918603,-112.3434556
820,Arizona,2018-19,Marion Donaldson Elementary,Public,Tucson,Pima,53,90.57,0,5.66,32.333323,-111.0118027
821,Arizona,2018-19,Kyrene De La Paloma,Public,Chandler,Maricopa,74,90.54,0,9.46,33.2957416,-111.9317274
822,Arizona,2018-19,Quartz Hill Elementary,Public,Gilbert,Maricopa,74,90.54,1.35,9.46,33.2837208,-111.7604479
823,Arizona,2018-19,Taylor Elementary,Public,Taylor,Navajo,73,90.41,0,9.59,34.464464,-110.0854577
824,Arizona,2018-19,Mountain Shadows Elementary,Public,Glendale,Maricopa,52,90.38,0,9.62,33.663381,-112.1579705
825,Arizona,2018-19,Center For Educational Excellence,Charter,Tempe,Maricopa,31,90.32,0,9.68,33.350022,-111.9136618
826,Arizona,2018-19,Cherokee Elementary,Charter,Scottsdale,Maricopa,124,90.32,0,6.45,33.5653464,-111.958795
827,Arizona,2018-19,Desert Mountain,Public,Phoenix,Maricopa,62,90.32,0,11.29,33.8104947,-112.0786203
828,Arizona,2018-19,Akimel O'Otham Pee Posh,Charter,Coolidge,Pinal,82,90.24,0,0,33.0319159,-111.5792895
829,Arizona,2018-19,John R Davis,Public,Phoenix,Maricopa,41,90.24,0,7.32,33.390289,-112.089797
830,Arizona,2018-19,Sandpiper Elementary,Public,Scottsdale,Maricopa,92,90.22,0,6.52,33.615913,-111.93554
831,Arizona,2018-19,Leading Edge Academy - Mountain View Campus,Charter,Queen Creek,Pinal,51,90.2,0,9.8,33.1984634,-111.6174996
832,Arizona,2018-19,Longview Elementary,Public,Phoenix,Maricopa,71,90.14,0,1.41,33.4937828,-112.0558509
833,Arizona,2018-19,Redfield Elementary,Public,Scottsdale,Maricopa,71,90.14,0,7.04,33.6145255,-111.8838027
834,Arizona,2018-19,Frontier Elementary,Public,Peoria,Maricopa,91,90.11,1.1,9.89,33.6754547,-112.2327715
835,Arizona,2018-19,Liberty Traditional,Public,Prescott Valley,Yavapai,91,90.11,0,9.89,34.5919508,-112.3348946
836,Arizona,2018-19,Desert Trails Elementary,Public,Phoenix,Maricopa,100,90,0,10,33.6904692,-111.9799043
837,Arizona,2018-19,Field Elementary,Public,Mesa,Maricopa,90,90,1.11,10,33.4294178,-111.7811251
838,Arizona,2018-19,Highland Elementary,Public,Mesa,Maricopa,110,90,0,10.91,33.4307426,-111.7653787
839,Arizona,2018-19,Navajo Elementary,Public,Scottsdale,Maricopa,50,90,0,12,33.4721259,-111.918651
840,Arizona,2018-19,Sequoia Pathfinder Academy At Eastmark,Charter,Mesa,Maricopa,40,90,0,10,33.3277405,-111.6184329
841,Arizona,2018-19,Jack Daley Primary,Public,Thatcher,Graham,119,89.92,0,11.76,32.8508736,-109.7590089
842,Arizona,2018-19,Riggs Elementary,Public,Gilbert,Maricopa,109,89.91,0.92,12.84,33.224617,-111.712988
843,Arizona,2018-19,Challenge Charter,Charter,Glendale,Maricopa,79,89.87,0,11.39,33.6426953,-112.1840539
844,Arizona,2018-19,Marilyn Thiele Wilson,Public,Mesa,Maricopa,108,89.81,0.93,7.41,33.3909612,-111.7112911
845,Arizona,2018-19,Gilbert Christian Elementary & Middle,Private,Gilbert,Maricopa,49,89.8,0,12.24,33.3242896,-111.7273981
846,Arizona,2018-19,Basis Phoenix South Primary,Charter,Phoenix,Maricopa,88,89.77,0,10.23,33.3944824,-112.0999907
847,Arizona,2018-19,Beaver Creek,Public,Rimrock,Yavapai,39,89.74,0,10.26,34.6560043,-111.7657134
848,Arizona,2018-19,Legacy Traditional Charter School - Gilbert,Charter,Gilbert,Maricopa,117,89.74,0,10.26,33.3007864,-111.7030899
849,Arizona,2018-19,Val Vista Academy - A Ball Charter,Charter,Gilbert,Maricopa,39,89.74,0,10.26,33.2755538,-111.7566554
850,Arizona,2018-19,Constitution Elementary,Public,Phoenix,Maricopa,107,89.72,0,11.21,33.6529216,-112.0925801
851,Arizona,2018-19,Parkridge Elementary,Public,Peoria,Maricopa,97,89.69,0,5.15,33.6677487,-112.2743157
852,Arizona,2018-19,The Paideia Academy Of South Phoenix,Charter,Phoenix,Maricopa,115,89.57,0,1.74,33.3761544,-112.04858
853,Arizona,2018-19,Paseo Hills Elementary,Public,Phoenix,Maricopa,86,89.53,0,6.98,33.68721,-112.129823
854,Arizona,2018-19,Copper Trails Elementary,Public,Goodyear,Maricopa,95,89.47,2.11,9.47,33.4427113,-112.4211263
855,Arizona,2018-19,Marley Park Elementary,Public,Surprise,Maricopa,85,89.41,0,12.94,33.6039581,-112.3833698
856,Arizona,2018-19,Mountain View,Public,Waddell,Maricopa,85,89.41,0,14.12,33.5771849,-112.4503737
857,Arizona,2018-19,American Leadership Academy - Ironwood K-6,Charter,Queen Creek,Pinal,94,89.36,0,11.7,33.2211995,-111.5706417
858,Arizona,2018-19,Black Mountain Elementary,Public,Golden Valley,Mohave,47,89.36,0,10.64,35.2239725,-114.2216818
859,Arizona,2018-19,Learning Foundation And Performing Arts Warner,Charter,Gilbert,Maricopa,47,89.36,0,10.64,33.3348701,-111.7033381
860,Arizona,2018-19,Fine Arts Academy,Public,Tolleson,Maricopa,75,89.33,1.33,9.33,33.4303996,-112.282167
861,Arizona,2018-19,Odyssey Preparatory Academy - Sienna Hills,Charter,Buckeye,Maricopa,75,89.33,0,14.67,33.4733257,-112.5177806
862,Arizona,2018-19,Robins Elementary,Public,Tucson,Pima,56,89.29,0,10.71,32.2783294,-111.0530243
863,Arizona,2018-19,Pinnacle Peak Elementary,Public,Scottsdale,Maricopa,74,89.19,0,6.76,33.6935103,-111.9136582
864,Arizona,2018-19,Quail Run Elementary,Public,Phoenix,Maricopa,111,89.19,0,9.01,33.6617384,-112.0095769
865,Arizona,2018-19,Fort Mohave Elementary,Public,Fort Mohave,Mohave,110,89.09,0,5.45,34.9963455,-114.5882513
866,Arizona,2018-19,Zuni Hills Elementary,Public,Peoria,Maricopa,82,89.02,0,18.29,33.6882987,-112.2932379
867,Arizona,2018-19,Harris Elementary,Public,Mesa,Maricopa,63,88.89,0,7.94,33.3816624,-111.797508
868,Arizona,2018-19,Maryvale Preparatory Academy,Charter,Phoenix,Maricopa,90,88.89,0,10,33.5090702,-112.1629506
869,Arizona,2018-19,Sandra Day O'Connor Elementary,Public,Mesa,Maricopa,54,88.89,5.56,12.96,33.4306545,-111.7261948
870,Arizona,2018-19,Legacy Traditional School - Maricopa,Charter,Maricopa,Pinal,125,88.8,0,10.4,33.0422422,-112.0059983
871,Arizona,2018-19,Anna Marie Jacobson Elementary,Public,Chandler,Maricopa,98,88.78,0,9.18,33.2601261,-111.8681359
872,Arizona,2018-19,Four Peaks Elementary,Public,Apache Junction,Pinal,89,88.76,0,11.24,33.4321974,-111.5450376
873,Arizona,2018-19,Copper Basin K-8,Public,Queen Creek,Pinal,53,88.68,0,11.32,33.1375694,-111.5277121
874,Arizona,2018-19,Hudlow Elementary,Public,Tucson,Pima,44,88.64,0,9.09,32.2276299,-110.8448582
875,Arizona,2018-19,Rudy G Bologna Elementary,Public,Chandler,Maricopa,79,88.61,0,11.39,33.2982753,-111.8132614
876,Arizona,2018-19,Finley Farms Elementary,Public,Gilbert,Maricopa,96,88.54,0,10.42,33.3447442,-111.7437887
877,Arizona,2018-19,Legacy Traditional School - Chandler,Charter,Chandler,Maricopa,139,88.49,0,10.79,33.2599941,-111.7883885
878,Arizona,2018-19,Lincoln Elementary,Public,Prescott,Yavapai,52,88.46,1.92,5.77,34.540313,-112.4767012
879,Arizona,2018-19,O C Johnson,Public,Yuma,Yuma,78,88.46,0,1.28,32.705315,-114.6350634
880,Arizona,2018-19,St Andrews Preschool & Kindergarten,Private,Tu,Pima,26,88.46,0,15.38,32.3452915,-110.9825567
881,Arizona,2018-19,Fireside Elementary,Public,Phoenix,Maricopa,121,88.43,0,6.61,33.6810277,-112.0012097
882,Arizona,2018-19,Leading Edge Academy - Maricopa Campus,Charter,Maricopa,Pinal,95,88.42,0,4.21,33.049339,-112.015336
883,Arizona,2018-19,Augustus H Shaw Jr,Public,Phoenix,Maricopa,69,88.41,0,11.59,33.449227,-112.0537049
884,Arizona,2018-19,Canyon Springs,Public,Anthem,Maricopa,77,88.31,0,9.09,33.8743231,-112.1545717
885,Arizona,2018-19,Kyrene De La Estrella Elementary,Public,Phoenix,Maricopa,68,88.24,0,16.18,33.2927037,-112.0274069
886,Arizona,2018-19,Legacy Traditional School-Queen Creek,Charter,Queen Creek,Pinal,144,88.19,0,4.86,33.2581636,-111.5738423
887,Arizona,2018-19,Presidio,Charter,Tucson,Pima,42,88.1,0,9.52,32.2654044,-110.9468183
888,Arizona,2018-19,Smoketree Elementary,Public,Lake Havasu City,Mohave,84,88.1,1.19,11.9,34.4856887,-114.3215298
889,Arizona,2018-19,Norterra Canyon K-8,Public,Phoenix,Maricopa,92,88.04,0,13.04,33.7304824,-112.1068436
890,Arizona,2018-19,Pomeroy Elementary,Public,Chandler,Maricopa,91,87.91,0,8.79,33.343812,-111.868372
891,Arizona,2018-19,Ventana Vista Elementary,Public,Tucson,Pima,74,87.84,0,9.46,32.3170468,-110.8516123
892,Arizona,2018-19,Paseo Verde Elementary,Public,Peoria,Maricopa,90,87.78,0,7.78,33.6256887,-112.2275864
893,Arizona,2018-19,Franklin At Alma Elementary,Public,Mesa,Maricopa,57,87.72,0,12.28,33.370059,-111.862158
894,Arizona,2018-19,Humboldt Elementary,Public,Humbolt,Yavapai,57,87.72,0,10.53,34.5043706,-112.2394401
895,Arizona,2018-19,Gavilan Peak Elementary,Public,Anthem,Maricopa,48,87.5,0,6.25,33.8558673,-112.116487
896,Arizona,2018-19,Greenbrier Elementary,Public,Glendale,Maricopa,48,87.5,0,8.33,33.6435056,-112.191858
897,Arizona,2018-19,Keystone Montessori Charter,Charter,Phoenix,Maricopa,24,87.5,0,16.67,33.295443,-112.060759
898,Arizona,2018-19,New Horizon School For The Performing Art,Charter,Mesa,Maricopa,24,87.5,0,4.17,33.4080145,-111.8209999
899,Arizona,2018-19,Great Heart Academies Archway Lincoln,Charter,Chandler,Maricopa,111,87.39,2.7,14.41,33.2738864,-111.7902982
900,Arizona,2018-19,Desert Mountain Elementary,Public,Queen Creek,Maricopa,95,87.37,1.05,11.58,33.2462071,-111.6505228
901,Arizona,2018-19,Franklin West Elementary,Public,Mesa,Maricopa,87,87.36,0,11.49,33.409711,-111.8301921
902,Arizona,2018-19,Pima Elementary,Public,Pima,Graham,63,87.3,0,12.7,32.8938639,-109.8267446
903,Arizona,2018-19,Basis Goodyear Primary,Charter,Goodyear,Maricopa,110,87.27,0,14.55,33.4401517,-112.3983334
904,Arizona,2018-19,Jamaica Elementary,Public,Lake Havasu City,Mohave,47,87.23,0,8.51,34.4908462,-114.2876715
905,Arizona,2018-19,Canyon Ridge Elementary,Public,Surprise,Maricopa,86,87.21,0,12.79,33.6333024,-112.4324374
906,Arizona,2018-19,Basis Chandler Primary North Campus,Charter,Chandler,Maricopa,125,87.2,0,3.2,33.3070738,-111.8103792
907,Arizona,2018-19,C I Waggoner,Public,Tempe,Maricopa,78,87.18,0,8.97,33.342527,-111.9216111
908,Arizona,2018-19,Palominas Elementary,Public,Hereford,Cochise,39,87.18,0,12.82,31.3812515,-110.1251688
909,Arizona,2018-19,Reid Traditional School Painted Rock Academy,Charter,Phoenix,Maricopa,78,87.18,0,15.38,33.6207483,-112.1151883
910,Arizona,2018-19,Roadrunner Elementary,Public,Marana,Pima,39,87.18,0,7.69,32.414231,-111.3234989
911,Arizona,2018-19,Hualapai Elementary,Public,Kingman,Mohave,148,87.16,0,12.84,35.1930731,-114.009237
912,Arizona,2018-19,Desert Willow Elementary,Public,Kingman,Mohave,101,87.13,0,13.86,35.2291989,-113.9745665
913,Arizona,2018-19,Archway Classical Academy - Scottsdale,Charter,Scottsdale,Maricopa,170,87.06,0,12.94,33.6354116,-111.88023
914,Arizona,2018-19,Weinberg Elementary,Public,Chandler,Maricopa,100,87,0,15,33.2548743,-111.7544317
915,Arizona,2018-19,Anasazi Elementary,Public,Scottsdale,Maricopa,46,86.96,0,13.04,33.596033,-111.812324
916,Arizona,2018-19,Montessori Academy,Charter,Paradise Valley,Maricopa,23,86.96,0,8.7,33.5253347,-111.9448588
917,Arizona,2018-19,Anthem Preparatory Academy,Charter,Anthem,Maricopa,61,86.89,1.64,16.39,33.84551,-112.1372113
918,Arizona,2018-19,La Senita Elementary,Public,Kingman,Mohave,38,86.84,0,13.16,35.2400004,-114.0041833
919,Arizona,2018-19,Navarrete Elementary,Public,Chandler,Maricopa,76,86.84,0,13.16,33.211731,-111.7603482
920,Arizona,2018-19,David Crockett,Public,Phoenix,Maricopa,91,86.81,0,3.3,33.4545914,-112.0036519
921,Arizona,2018-19,Diamond Canyon Elementary,Public,Phoenix,Maricopa,83,86.75,0,14.46,33.8476811,-112.1005461
922,Arizona,2018-19,Champion Chandler,Charter,Chandler,Maricopa,60,86.67,0,6.67,33.300618,-111.825352
923,Arizona,2018-19,Country Meadows Elementary,Public,Peoria,Maricopa,105,86.67,0.95,5.71,33.557474,-112.29631
924,Arizona,2018-19,Dr Daniel Bright Elementary,Public,Cottonwood,Yavapai,60,86.67,0,13.33,34.7131976,-112.0309475
925,Arizona,2018-19,Gilbert Christian Schools - Greenfield,Private,Gilbert,Maricopa,60,86.67,0,13.33,33.2714808,-111.7373323
926,Arizona,2018-19,Imagine Charter Elementary School At East,Charter,Mesa,Maricopa,105,86.67,0,0,33.3921843,-111.6225677
927,Arizona,2018-19,Khalsa Montessori Primary,Charter,Phoenix,Maricopa,30,86.67,0,23.33,33.476259,-112.069997
928,Arizona,2018-19,Great Heart Academies Archway Cicero,Charter,Scottsdale,Maricopa,82,86.59,1.22,17.07,33.5414744,-111.8902718
929,Arizona,2018-19,John & Carol Carlson Elementary,Public,Chandler,Maricopa,82,86.59,0,17.07,33.2279844,-111.7774891
930,Arizona,2018-19,Avalon Elementary,Charter,Apache Junction,Pinal,52,86.54,0,5.77,33.405117,-111.554094
931,Arizona,2018-19,Dr. Gary And Annette Auxier Elementary,Public,Queen Creek,Maricopa,141,86.52,0,16.31,33.2428523,-111.6872021
932,Arizona,2018-19,Happy Valley,Charter,Peoria,Maricopa,81,86.42,1.23,12.35,33.7114803,-112.2144993
933,Arizona,2018-19,Chandler Christian Academy,Private,Chandler,Maricopa,22,86.36,0,9.09,33.268091,-111.825816
934,Arizona,2018-19,Create Academy,Charter,Phoenix,Maricopa,22,86.36,0,13.64,33.4772788,-112.0295922
935,Arizona,2018-19,Duncan Elementary,Public,Duncan,Greenlee,22,86.36,0,9.09,32.7474425,-109.0862518
936,Arizona,2018-19,Desert Sun Elementary,Public,Scottsdale,Maricopa,43,86.05,0,16.28,33.737679,-111.944107
937,Arizona,2018-19,Sequoia Charter Elementary,Charter,Mesa,Maricopa,57,85.96,0,1.75,33.3874,-111.81639
938,Arizona,2018-19,Territorial Early Childhood Center,Private,Chino Valley,Yavapai,163,85.89,0,19.02,34.7654357,-112.4457011
939,Arizona,2018-19,Dreaming Summit Elementary,Public,Litchfield Park,Maricopa,92,85.87,0,2.17,33.514709,-112.347197
